[{"city":"Ada","country":"United States","location":"Ada Cemetery","state":"Michigan","state_abbrev":"MI","longitude":-85.5048931,"latitude":42.9621061,"city_longitude":-85.4954803,"city_latitude":42.960727,"date_occured":"2025-03-20","Audio":true,"Visual":true,"Time_of_Day":"Evening","Apparition_Type":"Ghost"},{"city":"Addison","country":"United States","location":"North Adams Rd.","state":"Michigan","state_abbrev":"MI","longitude":-84.3818434,"latitude":41.9714248,"city_longitude":-84.3471684,"city_latitude":41.986434,"date_occured":"2025-03-01","Audio":true,"Visual":true,"Time_of_Day":"Unknown","Apparition_Type":"Unknown"},{"city":"Adrian","country":"United States","location":"Ghost Trestle","state":"Michigan","state_abbrev":"MI","longitude":-84.0356562,"latitude":41.904538,"city_longitude":-84.0371659,"city_latitude":41.8975471,"date_occured":"2025-01-01","Audio":false,"Visual":false,"Time_of_Day":"Evening","Apparition_Type":"Ghost"},{"city":"Adrian","country":"United States","location":"Siena Heights University","state":"Michigan","state_abbrev":"MI","longitude":-84.0175653,"latitude":41.9057124,"city_longitude":-84.0371659,"city_latitude":41.8975471,"date_occured":"1970-03-13","Audio":false,"Visual":true,"Time_of_Day":"Morning, Evening","Apparition_Type":"Unknown"},{"city":"Albion","country":"United States","location":"Albion College","state":"Michigan","state_abbrev":"MI","longitude":-84.7451775,"latitude":42.2440064,"city_longitude":-84.7530304,"city_latitude":42.243097,"date_occured":"2025-01-01","Audio":true,"Visual":false,"Time_of_Day":"Unknown","Apparition_Type":"Unknown"},{"city":"Albion","country":"United States","location":"Riverside Cemetery","state":"Michigan","state_abbrev":"MI","longitude":-84.7530555,"latitude":42.2368139,"city_longitude":-84.7530304,"city_latitude":42.243097,"date_occured":"2025-01-01","Audio":false,"Visual":false,"Time_of_Day":"Unknown","Apparition_Type":"Unknown"},{"city":"Algonac","country":"United States","location":"Morrow Road","state":"Michigan","state_abbrev":"MI","longitude":-82.5762902,"latitude":42.6529969,"city_longitude":-82.531018,"city_latitude":42.6183675,"date_occured":"1800-03-13","Audio":false,"Visual":true,"Time_of_Day":"Evening","Apparition_Type":"Orb"},{"city":"Allegan","country":"United States","location":"Elks Lodge","state":"Michigan","state_abbrev":"MI","longitude":-85.8415992,"latitude":42.520552,"city_longitude":-85.8553031,"city_latitude":42.5291989,"date_occured":"2025-01-01","Audio":true,"Visual":false,"Time_of_Day":"Unknown","Apparition_Type":"Unknown"},{"city":"Allegan","country":"United States","location":"The Grill House and the Rock Bottom Bar","state":"Michigan","state_abbrev":"MI","longitude":-85.8575642,"latitude":42.4977621,"city_longitude":-85.8553031,"city_latitude":42.5291989,"date_occured":"2025-01-01","Audio":false,"Visual":true,"Time_of_Day":"Unknown","Apparition_Type":"Unknown"},{"city":"Allegan","country":"United States","location":"The Yellow Motel","state":"Michigan","state_abbrev":"MI","longitude":-85.8744224,"latitude":42.5341643,"city_longitude":-85.8553031,"city_latitude":42.5291989,"date_occured":"2007-03-13","Audio":false,"Visual":true,"Time_of_Day":"Unknown","Apparition_Type":"Unknown"},{"city":"Alma","country":"United States","location":"Alma College","state":"Michigan","state_abbrev":"MI","longitude":-84.669939,"latitude":43.379011,"city_longitude":-84.6597274,"city_latitude":43.3789199,"date_occured":"2025-01-01","Audio":true,"Visual":true,"Time_of_Day":"Evening","Apparition_Type":"Ghost"},{"city":"Alpena","country":"United States","location":"old radio tavern","state":"Michigan","state_abbrev":"MI","longitude":-83.433713,"latitude":45.0629087,"city_longitude":-83.4327528,"city_latitude":45.0616794,"date_occured":"2025-01-01","Audio":true,"Visual":true,"Time_of_Day":"Unknown","Apparition_Type":"Unknown"},{"city":"Ann Arbor","country":"United States","location":"Huron High School theatre.","state":"Michigan","state_abbrev":"MI","longitude":-83.702643,"latitude":42.2813889,"city_longitude":-83.7430378,"city_latitude":42.2808256,"date_occured":"2025-01-01","Audio":false,"Visual":true,"Time_of_Day":"Unknown","Apparition_Type":"Unknown"},{"city":"Ann Arbor","country":"United States","location":"Mercywood Hospital","state":"Michigan","state_abbrev":"MI","longitude":-83.6541587,"latitude":42.2648802,"city_longitude":-83.7430378,"city_latitude":42.2808256,"date_occured":"2025-01-01","Audio":true,"Visual":false,"Time_of_Day":"Unknown","Apparition_Type":"Unknown"},{"city":"Atlanta","country":"United States","location":"Camp 8 Cabin","state":"Michigan","state_abbrev":"MI","longitude":-84.2878159,"latitude":44.8478294,"city_longitude":-84.1438927,"city_latitude":45.0047306,"date_occured":"2008-03-13","Audio":true,"Visual":false,"Time_of_Day":"Unknown","Apparition_Type":"Ghost, Orb"},{"city":"Battle Creek","country":"United States","location":"Court Apartments (formally Webster Apartments)","state":"Michigan","state_abbrev":"MI","longitude":-85.1780687,"latitude":42.2979251,"city_longitude":-85.1797142,"city_latitude":42.3211522,"date_occured":"0100-03-13","Audio":true,"Visual":true,"Time_of_Day":"Unknown","Apparition_Type":"Unknown"},{"city":"Battle Creek","country":"United States","location":"Penfield cemetery","state":"Michigan","state_abbrev":"MI","longitude":-85.1777447,"latitude":42.3062055,"city_longitude":-85.1797142,"city_latitude":42.3211522,"date_occured":"2025-01-01","Audio":false,"Visual":true,"Time_of_Day":"Unknown","Apparition_Type":"Unknown"},{"city":"Bay City","country":"United States","location":"Delta College","state":"Michigan","state_abbrev":"MI","longitude":-83.9860036,"latitude":43.5579516,"city_longitude":-83.8888647,"city_latitude":43.5944677,"date_occured":"2025-01-01","Audio":true,"Visual":true,"Time_of_Day":"Unknown","Apparition_Type":"Unknown"},{"city":"Bay City","country":"United States","location":"old water treatment plant","state":"Michigan","state_abbrev":"MI","longitude":-83.8741012,"latitude":43.6258078,"city_longitude":-83.8888647,"city_latitude":43.5944677,"date_occured":"2025-01-01","Audio":false,"Visual":true,"Time_of_Day":"Unknown","Apparition_Type":"Unknown"},{"city":"Bay City","country":"United States","location":"Our Lady of the Visitation Church","state":"Michigan","state_abbrev":"MI","longitude":-83.8945444,"latitude":43.616625,"city_longitude":-83.8888647,"city_latitude":43.5944677,"date_occured":"2025-01-01","Audio":false,"Visual":false,"Time_of_Day":"Unknown","Apparition_Type":"Unknown"},{"city":"Bellaire","country":"United States","location":"Richardi House","state":"Michigan","state_abbrev":"MI","longitude":-85.209954,"latitude":44.980443,"city_longitude":-85.2111728,"city_latitude":44.9802822,"date_occured":"2025-01-01","Audio":false,"Visual":true,"Time_of_Day":"Unknown","Apparition_Type":"Unknown"},{"city":"Dearborn","country":"United States","location":"Ford Rouge Plant","state":"Michigan","state_abbrev":"MI","longitude":-83.233109,"latitude":42.303109,"city_longitude":-83.1763145,"city_latitude":42.3222599,"date_occured":"2001-03-13","Audio":true,"Visual":false,"Time_of_Day":"Evening","Apparition_Type":"Unknown"},{"city":"Dearborn","country":"United States","location":"Ford Rouge Plant \u2013 Overpass Bridge","state":"Michigan","state_abbrev":"MI","longitude":-83.233109,"latitude":42.303109,"city_longitude":-83.1763145,"city_latitude":42.3222599,"date_occured":"2025-01-01","Audio":true,"Visual":false,"Time_of_Day":"Evening","Apparition_Type":"Unknown"},{"city":"Dearborn","country":"United States","location":"O.L. Smith Middle School","state":"Michigan","state_abbrev":"MI","longitude":-83.2683124,"latitude":42.2879006,"city_longitude":-83.1763145,"city_latitude":42.3222599,"date_occured":"2025-01-01","Audio":true,"Visual":false,"Time_of_Day":"Unknown","Apparition_Type":"Unknown"},{"city":"Belding","country":"United States","location":"Belding Library","state":"Michigan","state_abbrev":"MI","longitude":-85.2268185,"latitude":43.0978464,"city_longitude":-85.228906,"city_latitude":43.0978094,"date_occured":"2025-01-01","Audio":true,"Visual":false,"Time_of_Day":"Unknown","Apparition_Type":"Unknown"},{"city":"Belleville","country":"United States","location":"94 &amp; Denton Rd.","state":"Michigan","state_abbrev":"MI","longitude":-94.819713,"latitude":45.6682051,"city_longitude":-83.4852133,"city_latitude":42.2047619,"date_occured":"2025-01-01","Audio":false,"Visual":true,"Time_of_Day":"Evening","Apparition_Type":"Unknown"},{"city":"Belleville","country":"United States","location":"Cemetery off S. Service Drive","state":"Michigan","state_abbrev":"MI","longitude":-83.522807,"latitude":42.2167069,"city_longitude":-83.4852133,"city_latitude":42.2047619,"date_occured":"2025-01-01","Audio":false,"Visual":true,"Time_of_Day":"Unknown","Apparition_Type":"Orb"},{"city":"Belleville","country":"United States","location":"Robson Rd","state":"Michigan","state_abbrev":"MI","longitude":-83.4757093,"latitude":42.2414323,"city_longitude":-83.4852133,"city_latitude":42.2047619,"date_occured":"2025-01-01","Audio":false,"Visual":true,"Time_of_Day":"Unknown","Apparition_Type":"Unknown"},{"city":"Belleville","country":"United States","location":"Tyler Rd. Cemetery","state":"Michigan","state_abbrev":"MI","longitude":-83.4298354,"latitude":42.2373832,"city_longitude":-83.4852133,"city_latitude":42.2047619,"date_occured":"2025-01-01","Audio":false,"Visual":true,"Time_of_Day":"Evening","Apparition_Type":"Ghost"},{"city":"Berville","country":"United States","location":"Berville Rd.","state":"Michigan","state_abbrev":"MI","longitude":-82.8857394,"latitude":42.9232364,"city_longitude":-82.8829846,"city_latitude":42.9083621,"date_occured":"2025-03-12","Audio":true,"Visual":true,"Time_of_Day":"Unknown","Apparition_Type":"Unknown"},{"city":"Big Rapids","country":"United States","location":"Big Rapids Cinema","state":"Michigan","state_abbrev":"MI","longitude":-85.4815053,"latitude":43.6964729,"city_longitude":-85.4836557,"city_latitude":43.6980782,"date_occured":"2025-01-01","Audio":true,"Visual":false,"Time_of_Day":"Unknown","Apparition_Type":"Unknown"},{"city":"Big Rapids","country":"United States","location":"Ponderosa","state":"Michigan","state_abbrev":"MI","longitude":-85.3960578,"latitude":44.2451965,"city_longitude":-85.4836557,"city_latitude":43.6980782,"date_occured":"2025-01-01","Audio":true,"Visual":true,"Time_of_Day":"Unknown","Apparition_Type":"Unknown"},{"city":"Big Rapids","country":"United States","location":"Rapids Apartments","state":"Michigan","state_abbrev":"MI","longitude":-85.4856063,"latitude":43.6901794,"city_longitude":-85.4836557,"city_latitude":43.6980782,"date_occured":"2025-01-01","Audio":true,"Visual":false,"Time_of_Day":"Unknown","Apparition_Type":"Unknown"},{"city":"Birmingham","country":"United States","location":"Adams house","state":"Michigan","state_abbrev":"MI","longitude":-83.205793,"latitude":42.541766,"city_longitude":-83.2113192,"city_latitude":42.5467012,"date_occured":"1920-03-13","Audio":false,"Visual":true,"Time_of_Day":"Morning","Apparition_Type":"Unknown"},{"city":"Bloomfield","country":"United States","location":"Trowbridge Road","state":"Michigan","state_abbrev":"MI","longitude":-83.2342207,"latitude":42.5778303,"city_longitude":-83.2827093,"city_latitude":42.5793103,"date_occured":"2003-03-13","Audio":false,"Visual":false,"Time_of_Day":"Evening","Apparition_Type":"Unknown"},{"city":"Bloomfield","country":"United States","location":"Trowbridge Road","state":"Michigan","state_abbrev":"MI","longitude":-83.2342207,"latitude":42.5778303,"city_longitude":-83.2827093,"city_latitude":42.5793103,"date_occured":"2005-03-13","Audio":false,"Visual":true,"Time_of_Day":"Evening","Apparition_Type":"Unknown"},{"city":"Borculo","country":"United States","location":"The Old School House","state":"Michigan","state_abbrev":"MI","longitude":-86.013767,"latitude":42.885003,"city_longitude":-86.0211532,"city_latitude":42.8850235,"date_occured":"2025-01-01","Audio":false,"Visual":true,"Time_of_Day":"Unknown","Apparition_Type":"Unknown"},{"city":"Breckenridge","country":"United States","location":"AIM School","state":"Michigan","state_abbrev":"MI","longitude":-84.4759154,"latitude":43.4146517,"city_longitude":-84.4749978,"city_latitude":43.4080849,"date_occured":"1994-03-13","Audio":true,"Visual":false,"Time_of_Day":"Unknown","Apparition_Type":"Unknown"},{"city":"Bridgeport","country":"United States","location":"Bridgeport High School","state":"Michigan","state_abbrev":"MI","longitude":-83.8698136,"latitude":43.3553067,"city_longitude":-83.8816364,"city_latitude":43.3594696,"date_occured":"2025-01-01","Audio":false,"Visual":false,"Time_of_Day":"Unknown","Apparition_Type":"Unknown"},{"city":"Bridgeport","country":"United States","location":"Cole Rd. Cemetery","state":"Michigan","state_abbrev":"MI","longitude":-83.063823,"latitude":42.516651,"city_longitude":-83.8816364,"city_latitude":43.3594696,"date_occured":"2025-01-01","Audio":false,"Visual":true,"Time_of_Day":"Unknown","Apparition_Type":"Unknown"},{"city":"Brighton","country":"United States","location":"Brighton Women's correctional institute","state":"Michigan","state_abbrev":"MI","longitude":-83.6954277,"latitude":42.5191232,"city_longitude":-83.7802214,"city_latitude":42.5294773,"date_occured":"2025-01-01","Audio":false,"Visual":false,"Time_of_Day":"Unknown","Apparition_Type":"Ghost"},{"city":"Brimley","country":"United States","location":"Point Iroquois Lighthouse","state":"Michigan","state_abbrev":"MI","longitude":-84.6321703,"latitude":46.484246,"city_longitude":-84.6920059,"city_latitude":46.3740542,"date_occured":"1600-03-13","Audio":false,"Visual":true,"Time_of_Day":"Unknown","Apparition_Type":"Ghost"},{"city":"Brooklyn","country":"United States","location":"Clarklake","state":"Michigan","state_abbrev":"MI","longitude":-84.2482819,"latitude":42.105874,"city_longitude":-84.2482819,"city_latitude":42.105874,"date_occured":"2025-01-01","Audio":true,"Visual":false,"Time_of_Day":"Unknown","Apparition_Type":"Unknown"},{"city":"Brownstown","country":"United States","location":"Dawnshire Park","state":"Michigan","state_abbrev":"MI","longitude":-83.220996,"latitude":42.1663269,"city_longitude":-83.2572332,"city_latitude":42.1261157,"date_occured":"1990-03-13","Audio":true,"Visual":true,"Time_of_Day":"Morning","Apparition_Type":"Unknown"},{"city":"Brownstown","country":"United States","location":"Oak ridge cemetery on Telegraph","state":"Michigan","state_abbrev":"MI","longitude":-83.269511,"latitude":42.131493,"city_longitude":-83.2572332,"city_latitude":42.1261157,"date_occured":"2025-01-01","Audio":false,"Visual":false,"Time_of_Day":"Unknown","Apparition_Type":"Unknown"},{"city":"Brownstown","country":"United States","location":"Tela Valley","state":"Michigan","state_abbrev":"MI","longitude":-83.2619069,"latitude":42.177167,"city_longitude":-83.2572332,"city_latitude":42.1261157,"date_occured":"2025-01-01","Audio":false,"Visual":true,"Time_of_Day":"Evening","Apparition_Type":"Unknown"},{"city":"Calumet","country":"United States","location":"Calumet theatre","state":"Michigan","state_abbrev":"MI","longitude":-88.4534423,"latitude":47.2478234,"city_longitude":-88.454006,"city_latitude":47.2465922,"date_occured":"1903-03-13","Audio":true,"Visual":true,"Time_of_Day":"Evening","Apparition_Type":"Ghost, Orb"},{"city":"Canton","country":"United States","location":"Denton rd","state":"Michigan","state_abbrev":"MI","longitude":-83.525226,"latitude":42.2853235,"city_longitude":-83.482116,"city_latitude":42.3086444,"date_occured":"2025-01-01","Audio":true,"Visual":true,"Time_of_Day":"Unknown","Apparition_Type":"Unknown"},{"city":"Canton","country":"United States","location":"Denton Road Bridge","state":"Michigan","state_abbrev":"MI","longitude":-83.525226,"latitude":42.2853235,"city_longitude":-83.482116,"city_latitude":42.3086444,"date_occured":"2003-03-13","Audio":false,"Visual":true,"Time_of_Day":"Evening","Apparition_Type":"Unknown"},{"city":"Canton","country":"United States","location":"Ford Road","state":"Michigan","state_abbrev":"MI","longitude":-83.4895295,"latitude":42.3218667,"city_longitude":-83.482116,"city_latitude":42.3086444,"date_occured":"2025-01-01","Audio":true,"Visual":false,"Time_of_Day":"Unknown","Apparition_Type":"Ghost"},{"city":"Canton","country":"United States","location":"Gyde Rd.","state":"Michigan","state_abbrev":"MI","longitude":-83.5177329,"latitude":42.3428997,"city_longitude":-83.482116,"city_latitude":42.3086444,"date_occured":"2025-01-01","Audio":true,"Visual":false,"Time_of_Day":"Unknown","Apparition_Type":"Unknown"},{"city":"Cass City","country":"United States","location":"Crawford Rd. bridge","state":"Michigan","state_abbrev":"MI","longitude":-83.1334217,"latitude":43.5727986,"city_longitude":-83.1746693,"city_latitude":43.6008515,"date_occured":"1800-03-13","Audio":true,"Visual":true,"Time_of_Day":"Evening","Apparition_Type":"Unknown"},{"city":"Central Lake","country":"United States","location":"Murphy's Lamplight Inn","state":"Michigan","state_abbrev":"MI","longitude":-85.264923,"latitude":45.0720901,"city_longitude":-85.2645105,"city_latitude":45.0700047,"date_occured":"1924-03-13","Audio":false,"Visual":true,"Time_of_Day":"Morning","Apparition_Type":"Ghost, Female, Child"},{"city":"Charlevoix","country":"United States","location":"Weathervane Restaurant","state":"Michigan","state_abbrev":"MI","longitude":-85.2592843,"latitude":45.3192451,"city_longitude":-85.2584004,"city_latitude":45.3180632,"date_occured":"2025-01-01","Audio":false,"Visual":false,"Time_of_Day":"Morning","Apparition_Type":"Ghost"},{"city":"Charlotte","country":"United States","location":"Eaton Theatre","state":"Michigan","state_abbrev":"MI","longitude":-84.8354913,"latitude":42.561261,"city_longitude":-84.8358211,"city_latitude":42.5636478,"date_occured":"1923-03-13","Audio":false,"Visual":false,"Time_of_Day":"Unknown","Apparition_Type":"Unknown"},{"city":"Charlotte","country":"United States","location":"Old Charlotte Jr. High","state":"Michigan","state_abbrev":"MI","longitude":-84.856486,"latitude":42.5556987,"city_longitude":-84.8358211,"city_latitude":42.5636478,"date_occured":"2025-01-01","Audio":false,"Visual":false,"Time_of_Day":"Unknown","Apparition_Type":"Unknown"},{"city":"Cheboygan","country":"United States","location":"Pellston","state":"Michigan","state_abbrev":"MI","longitude":-84.7839364,"latitude":45.552789,"city_longitude":-84.4744795,"city_latitude":45.6469563,"date_occured":"2007-03-13","Audio":false,"Visual":false,"Time_of_Day":"Unknown","Apparition_Type":"Unknown"},{"city":"Chelsea","country":"United States","location":"Beach Middle School","state":"Michigan","state_abbrev":"MI","longitude":-84.0096366,"latitude":42.3182386,"city_longitude":-84.0205029,"city_latitude":42.3180919,"date_occured":"2025-01-01","Audio":true,"Visual":false,"Time_of_Day":"Unknown","Apparition_Type":"Unknown"},{"city":"Chelsea","country":"United States","location":"Chelsea hospital","state":"Michigan","state_abbrev":"MI","longitude":-84.0165056,"latitude":42.3104227,"city_longitude":-84.0205029,"city_latitude":42.3180919,"date_occured":"2025-01-01","Audio":false,"Visual":false,"Time_of_Day":"Evening","Apparition_Type":"Ghost"},{"city":"Clarksdale","country":"United States","location":"Sunflower Bridge","state":"Michigan","state_abbrev":"MI","longitude":-83.3426114,"latitude":42.7150605,"city_longitude":-83.4192941,"city_latitude":42.7351196,"date_occured":"2025-01-01","Audio":true,"Visual":false,"Time_of_Day":"Evening","Apparition_Type":"Unknown"},{"city":"Clarkston","country":"United States","location":"Clarkston Cinema","state":"Michigan","state_abbrev":"MI","longitude":-83.43415,"latitude":42.660509,"city_longitude":-83.4192941,"city_latitude":42.7351196,"date_occured":"2025-01-01","Audio":true,"Visual":true,"Time_of_Day":"Evening","Apparition_Type":"Unknown"},{"city":"Clarkston","country":"United States","location":"CVS off dixie us 20","state":"Michigan","state_abbrev":"MI","longitude":-83.426161,"latitude":42.7229641,"city_longitude":-83.4192941,"city_latitude":42.7351196,"date_occured":"1800-03-13","Audio":false,"Visual":false,"Time_of_Day":"Evening","Apparition_Type":"Unknown"},{"city":"Clinton Township","country":"United States","location":"18 mile road and Hayes","state":"Michigan","state_abbrev":"MI","longitude":-82.9720252,"latitude":42.5975415,"city_longitude":-82.9195514,"city_latitude":42.5868882,"date_occured":"1800-03-13","Audio":true,"Visual":false,"Time_of_Day":"Evening","Apparition_Type":"Unknown"},{"city":"Clinton Township","country":"United States","location":"Cadillac Memorial Gardens East","state":"Michigan","state_abbrev":"MI","longitude":-82.9564118,"latitude":42.5811627,"city_longitude":-82.9195514,"city_latitude":42.5868882,"date_occured":"2025-03-20","Audio":true,"Visual":true,"Time_of_Day":"Morning, Evening","Apparition_Type":"Unknown"},{"city":"Clinton Township","country":"United States","location":"Chateau Clinton Trailer Park","state":"Michigan","state_abbrev":"MI","longitude":-82.9707913,"latitude":42.5764741,"city_longitude":-82.9195514,"city_latitude":42.5868882,"date_occured":"2025-01-01","Audio":false,"Visual":true,"Time_of_Day":"Morning","Apparition_Type":"Unknown"},{"city":"Clinton County","country":"United States","location":"St. Johns","state":"Michigan","state_abbrev":"MI","longitude":-84.5591521,"latitude":43.001143,"city_longitude":-84.5222189,"city_latitude":42.9663458,"date_occured":"2025-01-01","Audio":true,"Visual":false,"Time_of_Day":"Unknown","Apparition_Type":"Unknown"},{"city":"Clinton County","country":"United States","location":"St. Johns\/Clinton County","state":"Michigan","state_abbrev":"MI","longitude":-84.5591521,"latitude":43.001143,"city_longitude":-84.5222189,"city_latitude":42.9663458,"date_occured":"2025-01-01","Audio":false,"Visual":false,"Time_of_Day":"Unknown","Apparition_Type":"Orb"},{"city":"Clinton Township","country":"United States","location":"Rudgate Manufactured Home Park","state":"Michigan","state_abbrev":"MI","longitude":-82.9159326,"latitude":42.5792561,"city_longitude":-82.9195514,"city_latitude":42.5868882,"date_occured":"1800-03-13","Audio":false,"Visual":true,"Time_of_Day":"Evening","Apparition_Type":"Ghost"},{"city":"Clyde township","country":"United States","location":"Shoefelt Rd","state":"Michigan","state_abbrev":"MI","longitude":-82.56376,"latitude":43.0362674,"city_longitude":-82.5834947,"city_latitude":43.0313165,"date_occured":"2025-03-14","Audio":false,"Visual":false,"Time_of_Day":"Evening","Apparition_Type":"Unknown"},{"city":"Cockeysville","country":"United States","location":"Padonia Park Club","state":"Michigan","state_abbrev":"MI","longitude":-76.671167,"latitude":39.4536423,"city_longitude":null,"city_latitude":null,"date_occured":"2025-10-13","Audio":false,"Visual":false,"Time_of_Day":"Unknown","Apparition_Type":"Ghost"},{"city":"Coldwater","country":"United States","location":"Oak Hill Cemetery","state":"Michigan","state_abbrev":"MI","longitude":-85.1777447,"latitude":42.3062055,"city_longitude":-85.0005215,"city_latitude":41.9403263,"date_occured":"2025-01-01","Audio":false,"Visual":true,"Time_of_Day":"Unknown","Apparition_Type":"Unknown"},{"city":"Croton","country":"United States","location":"Croton Dam","state":"Michigan","state_abbrev":"MI","longitude":-85.6633891,"latitude":43.437111,"city_longitude":-85.6229296,"city_latitude":43.4194319,"date_occured":"1970-03-13","Audio":false,"Visual":true,"Time_of_Day":"Morning","Apparition_Type":"Unknown"},{"city":"Cranbrooke campus","country":"United States","location":"the elementary school","state":"Michigan","state_abbrev":"MI","longitude":-83.2411806,"latitude":42.5770046,"city_longitude":-83.2411806,"city_latitude":42.5770046,"date_occured":"2025-01-01","Audio":false,"Visual":true,"Time_of_Day":"Unknown","Apparition_Type":"Unknown"},{"city":"Dansville","country":"United States","location":"Seven Gables","state":"Michigan","state_abbrev":"MI","longitude":-84.3172743,"latitude":42.5293347,"city_longitude":-84.3033013,"city_latitude":42.555869,"date_occured":"2025-03-02","Audio":true,"Visual":false,"Time_of_Day":"Unknown","Apparition_Type":"Unknown"},{"city":"Davison","country":"United States","location":"Russelville ballroom","state":"Michigan","state_abbrev":"MI","longitude":-83.516398,"latitude":43.031357,"city_longitude":-83.5180063,"city_latitude":43.0347491,"date_occured":"2006-03-13","Audio":false,"Visual":true,"Time_of_Day":"Unknown","Apparition_Type":"Ghost, Orb"},{"city":"Dearborn","country":"United States","location":"Divine Child High School","state":"Michigan","state_abbrev":"MI","longitude":-83.2830751,"latitude":42.3186735,"city_longitude":-83.1763145,"city_latitude":42.3222599,"date_occured":"2025-01-01","Audio":false,"Visual":true,"Time_of_Day":"Evening","Apparition_Type":"Ghost"},{"city":"Dearborn","country":"United States","location":"Dunworth Pool (Seashore)","state":"Michigan","state_abbrev":"MI","longitude":-83.2780925,"latitude":42.3171511,"city_longitude":-83.1763145,"city_latitude":42.3222599,"date_occured":"2025-01-01","Audio":true,"Visual":true,"Time_of_Day":"Evening","Apparition_Type":"Unknown"},{"city":"Dearborn","country":"United States","location":"Fire Station 2","state":"Michigan","state_abbrev":"MI","longitude":-83.2639806,"latitude":42.3053486,"city_longitude":-83.1763145,"city_latitude":42.3222599,"date_occured":"2025-01-01","Audio":true,"Visual":true,"Time_of_Day":"Evening","Apparition_Type":"Ghost"},{"city":"Dearborn","country":"United States","location":"Greenfield Village","state":"Michigan","state_abbrev":"MI","longitude":-83.2246496,"latitude":42.3053156,"city_longitude":-83.1763145,"city_latitude":42.3222599,"date_occured":"2025-01-01","Audio":false,"Visual":false,"Time_of_Day":"Unknown","Apparition_Type":"Ghost, Several Ghosts"},{"city":"Dearborn","country":"United States","location":"Greenfiled village","state":"Michigan","state_abbrev":"MI","longitude":-83.2246496,"latitude":42.3053156,"city_longitude":-83.1763145,"city_latitude":42.3222599,"date_occured":"2025-01-01","Audio":false,"Visual":false,"Time_of_Day":"Evening","Apparition_Type":"Unknown"},{"city":"Dearborn","country":"United States","location":"The Henry Ford Estate","state":"Michigan","state_abbrev":"MI","longitude":-83.2324072,"latitude":42.3140335,"city_longitude":-83.1763145,"city_latitude":42.3222599,"date_occured":"2025-01-01","Audio":false,"Visual":true,"Time_of_Day":"Unknown","Apparition_Type":"Ghost, Orb"},{"city":"Dearborn","country":"United States","location":"Players Guild of Dearborn","state":"Michigan","state_abbrev":"MI","longitude":-83.249648,"latitude":42.2912778,"city_longitude":-83.1763145,"city_latitude":42.3222599,"date_occured":"2025-01-01","Audio":true,"Visual":true,"Time_of_Day":"Unknown","Apparition_Type":"Ghost"},{"city":"Dearborn","country":"United States","location":"Ritz Carlton Hotel","state":"Michigan","state_abbrev":"MI","longitude":-83.2170915,"latitude":42.3204642,"city_longitude":-83.1763145,"city_latitude":42.3222599,"date_occured":"2025-01-01","Audio":false,"Visual":true,"Time_of_Day":"Unknown","Apparition_Type":"Unknown"},{"city":"Dearborn","country":"United States","location":"Showcase cinema","state":"Michigan","state_abbrev":"MI","longitude":-83.2726327,"latitude":42.298213,"city_longitude":-83.1763145,"city_latitude":42.3222599,"date_occured":"2025-01-01","Audio":false,"Visual":true,"Time_of_Day":"Unknown","Apparition_Type":"Unknown"},{"city":"Dearborn","country":"United States","location":"Tournament Players Club","state":"Michigan","state_abbrev":"MI","longitude":-83.2008523,"latitude":42.3064362,"city_longitude":-83.1763145,"city_latitude":42.3222599,"date_occured":"2025-01-01","Audio":false,"Visual":false,"Time_of_Day":"Evening","Apparition_Type":"Ghost"},{"city":"Dearborn Heights","country":"United States","location":"Berwyn Senior Center","state":"Michigan","state_abbrev":"MI","longitude":-83.297266,"latitude":42.3367661,"city_longitude":-83.2732627,"city_latitude":42.3369816,"date_occured":"2033-03-13","Audio":true,"Visual":true,"Time_of_Day":"Unknown","Apparition_Type":"Unknown"},{"city":"Dearborn Heights","country":"United States","location":"Crestwood Computer Lab","state":"Michigan","state_abbrev":"MI","longitude":-83.2932414,"latitude":42.3220925,"city_longitude":-83.2732627,"city_latitude":42.3369816,"date_occured":"2025-01-01","Audio":false,"Visual":false,"Time_of_Day":"Unknown","Apparition_Type":"Ghost"},{"city":"Dearborn Heights","country":"United States","location":"Crestwood High School","state":"Michigan","state_abbrev":"MI","longitude":-83.2932414,"latitude":42.3220925,"city_longitude":-83.2732627,"city_latitude":42.3369816,"date_occured":"2025-01-01","Audio":true,"Visual":false,"Time_of_Day":"Evening","Apparition_Type":"Ghost"},{"city":"Dearborn Heights","country":"United States","location":"Highview Elementary School","state":"Michigan","state_abbrev":"MI","longitude":-83.2853311,"latitude":42.3371456,"city_longitude":-83.2732627,"city_latitude":42.3369816,"date_occured":"2025-01-01","Audio":true,"Visual":false,"Time_of_Day":"Unknown","Apparition_Type":"Unknown"},{"city":"Dearborn Heights","country":"United States","location":"O.W. Best Middle School","state":"Michigan","state_abbrev":"MI","longitude":-83.2546347,"latitude":42.2726796,"city_longitude":-83.2732627,"city_latitude":42.3369816,"date_occured":"2025-01-01","Audio":true,"Visual":true,"Time_of_Day":"Unknown","Apparition_Type":"Unknown"},{"city":"Dearborn Heights","country":"United States","location":"Riverside Middle School","state":"Michigan","state_abbrev":"MI","longitude":-83.2941007,"latitude":42.3422737,"city_longitude":-83.2732627,"city_latitude":42.3369816,"date_occured":"2002-03-13","Audio":true,"Visual":true,"Time_of_Day":"Unknown","Apparition_Type":"Unknown"},{"city":"Dearborn Heights","country":"United States","location":"Silvery lane park","state":"Michigan","state_abbrev":"MI","longitude":-83.2829189,"latitude":42.3412156,"city_longitude":-83.2732627,"city_latitude":42.3369816,"date_occured":"2025-03-13","Audio":false,"Visual":false,"Time_of_Day":"Evening","Apparition_Type":"Unknown"},{"city":"Detroit","country":"United States","location":"Coca-cola Plant","state":"Michigan","state_abbrev":"MI","longitude":-83.1261256,"latitude":42.3442795,"city_longitude":-83.0457538,"city_latitude":42.331427,"date_occured":"2025-03-13","Audio":false,"Visual":true,"Time_of_Day":"Unknown","Apparition_Type":"Unknown"},{"city":"Detroit","country":"United States","location":"Dept Of Transportation Main Office","state":"Michigan","state_abbrev":"MI","longitude":-83.052541,"latitude":42.3618853,"city_longitude":-83.0457538,"city_latitude":42.331427,"date_occured":"2025-01-01","Audio":false,"Visual":false,"Time_of_Day":"Evening","Apparition_Type":"Unknown"},{"city":"Detroit","country":"United States","location":"Detroit Historical Museum","state":"Michigan","state_abbrev":"MI","longitude":-83.067181,"latitude":42.359752,"city_longitude":-83.0457538,"city_latitude":42.331427,"date_occured":"2025-01-01","Audio":false,"Visual":true,"Time_of_Day":"Unknown","Apparition_Type":"Orb"},{"city":"Detroit","country":"United States","location":"Detroit Institute of Arts","state":"Michigan","state_abbrev":"MI","longitude":-83.0645764,"latitude":42.3594199,"city_longitude":-83.0457538,"city_latitude":42.331427,"date_occured":"2025-01-01","Audio":true,"Visual":true,"Time_of_Day":"Evening, Dusk","Apparition_Type":"Unknown"},{"city":"Detroit","country":"United States","location":"The Detroit Masonic Temple","state":"Michigan","state_abbrev":"MI","longitude":-83.0601885,"latitude":42.3415452,"city_longitude":-83.0457538,"city_latitude":42.331427,"date_occured":"1912-03-13","Audio":true,"Visual":true,"Time_of_Day":"Evening","Apparition_Type":"Ghost, Male"},{"city":"Detroit","country":"United States","location":"General Motors Plant","state":"Michigan","state_abbrev":"MI","longitude":-83.0463127,"latitude":42.3800828,"city_longitude":-83.0457538,"city_latitude":42.331427,"date_occured":"1944-03-13","Audio":false,"Visual":false,"Time_of_Day":"Unknown","Apparition_Type":"Ghost"},{"city":"Detroit","country":"United States","location":"Henry Ford Hospital","state":"Michigan","state_abbrev":"MI","longitude":-83.0851898,"latitude":42.3673317,"city_longitude":-83.0457538,"city_latitude":42.331427,"date_occured":"2025-01-01","Audio":true,"Visual":false,"Time_of_Day":"Evening","Apparition_Type":"Unknown"},{"city":"Detroit","country":"United States","location":"Henry Ford Hospital","state":"Michigan","state_abbrev":"MI","longitude":-83.0851898,"latitude":42.3673317,"city_longitude":-83.0457538,"city_latitude":42.331427,"date_occured":"1926-03-13","Audio":false,"Visual":false,"Time_of_Day":"Morning, Evening","Apparition_Type":"Unknown"},{"city":"Detroit","country":"United States","location":"Jefferson St.","state":"Michigan","state_abbrev":"MI","longitude":-83.0088451,"latitude":42.3456959,"city_longitude":-83.0457538,"city_latitude":42.331427,"date_occured":"2025-01-01","Audio":true,"Visual":false,"Time_of_Day":"Unknown","Apparition_Type":"Unknown"},{"city":"Detroit","country":"United States","location":"Majestic","state":"Michigan","state_abbrev":"MI","longitude":-83.2047543,"latitude":42.3459369,"city_longitude":-83.0457538,"city_latitude":42.331427,"date_occured":"2025-03-03","Audio":true,"Visual":true,"Time_of_Day":"Evening","Apparition_Type":"Unknown"},{"city":"Detroit","country":"United States","location":"Orchestra hall","state":"Michigan","state_abbrev":"MI","longitude":-83.0593353,"latitude":42.3489084,"city_longitude":-83.0457538,"city_latitude":42.331427,"date_occured":"2025-01-01","Audio":false,"Visual":false,"Time_of_Day":"Unknown","Apparition_Type":"Unknown"},{"city":"Detroit","country":"United States","location":"Our Lady Queen of Angels Parish Hall","state":"Michigan","state_abbrev":"MI","longitude":-83.1263216,"latitude":42.3295461,"city_longitude":-83.0457538,"city_latitude":42.331427,"date_occured":"2025-01-01","Audio":true,"Visual":true,"Time_of_Day":"Unknown","Apparition_Type":"Unknown"},{"city":"Detroit","country":"United States","location":"St. Andrew Hall","state":"Michigan","state_abbrev":"MI","longitude":-83.0415482,"latitude":42.3323565,"city_longitude":-83.0457538,"city_latitude":42.331427,"date_occured":"2025-01-01","Audio":false,"Visual":true,"Time_of_Day":"Unknown","Apparition_Type":"Ghost, Several Ghosts"},{"city":"Detroit","country":"United States","location":"University of Detroit","state":"Michigan","state_abbrev":"MI","longitude":-83.1379029,"latitude":42.414062,"city_longitude":-83.0457538,"city_latitude":42.331427,"date_occured":"2007-03-13","Audio":false,"Visual":false,"Time_of_Day":"Unknown","Apparition_Type":"Ghost"},{"city":"Detroit","country":"United States","location":"The Whitney","state":"Michigan","state_abbrev":"MI","longitude":-83.062176,"latitude":42.3528108,"city_longitude":-83.0457538,"city_latitude":42.331427,"date_occured":"2025-01-01","Audio":false,"Visual":false,"Time_of_Day":"Unknown","Apparition_Type":"Ghost, Male"},{"city":"Dowagiac","country":"United States","location":"Beckwith Theatre","state":"Michigan","state_abbrev":"MI","longitude":-86.1107004,"latitude":41.9835636,"city_longitude":-86.1086228,"city_latitude":41.9842123,"date_occured":"2025-01-01","Audio":true,"Visual":true,"Time_of_Day":"Evening","Apparition_Type":"Ghost, Several Ghosts"},{"city":"Dowagiac","country":"United States","location":"Olympia Books","state":"Michigan","state_abbrev":"MI","longitude":-86.1092599,"latitude":41.9822735,"city_longitude":-86.1086228,"city_latitude":41.9842123,"date_occured":"0100-03-13","Audio":true,"Visual":true,"Time_of_Day":"Unknown","Apparition_Type":"Ghost"},{"city":"Dryden","country":"United States","location":"Casey \/ Rochester road intersection","state":"Michigan","state_abbrev":"MI","longitude":-83.1437021,"latitude":42.9239416,"city_longitude":-83.1238265,"city_latitude":42.9461395,"date_occured":"2025-01-01","Audio":true,"Visual":true,"Time_of_Day":"Evening","Apparition_Type":"Ghost"},{"city":"Dutch town","country":"United States","location":"Marons Food Market","state":"Michigan","state_abbrev":"MI","longitude":-85.744067,"latitude":42.882983,"city_longitude":-86.1089301,"city_latitude":42.7875235,"date_occured":"2025-01-01","Audio":false,"Visual":true,"Time_of_Day":"Unknown","Apparition_Type":"Ghost"},{"city":"Eagle Harbor","country":"United States","location":"Lake Breeze Inn and light house","state":"Michigan","state_abbrev":"MI","longitude":-88.1585173,"latitude":47.4589082,"city_longitude":-88.1623228,"city_latitude":47.4582339,"date_occured":"2025-01-01","Audio":true,"Visual":true,"Time_of_Day":"Unknown","Apparition_Type":"Unknown"},{"city":"East Lansing","country":"United States","location":"Fairchild Auditorium","state":"Michigan","state_abbrev":"MI","longitude":-84.4768477,"latitude":42.7287519,"city_longitude":-84.4838654,"city_latitude":42.7369792,"date_occured":"2025-01-01","Audio":false,"Visual":false,"Time_of_Day":"Unknown","Apparition_Type":"Unknown"},{"city":"East Lansing","country":"United States","location":"Michigan State University","state":"Michigan","state_abbrev":"MI","longitude":-84.4821719,"latitude":42.701848,"city_longitude":-84.4838654,"city_latitude":42.7369792,"date_occured":"2025-01-01","Audio":false,"Visual":true,"Time_of_Day":"Unknown","Apparition_Type":"Male"},{"city":"East Lansing","country":"United States","location":"Michigan State University","state":"Michigan","state_abbrev":"MI","longitude":-84.4821719,"latitude":42.701848,"city_longitude":-84.4838654,"city_latitude":42.7369792,"date_occured":"2025-01-01","Audio":true,"Visual":true,"Time_of_Day":"Evening","Apparition_Type":"Unknown"},{"city":"East Lansing","country":"United States","location":"Michigan State University","state":"Michigan","state_abbrev":"MI","longitude":-84.4821719,"latitude":42.701848,"city_longitude":-84.4838654,"city_latitude":42.7369792,"date_occured":"2025-01-01","Audio":true,"Visual":true,"Time_of_Day":"Unknown","Apparition_Type":"Unknown"},{"city":"East Lansing","country":"United States","location":"Michigan State University","state":"Michigan","state_abbrev":"MI","longitude":-84.4821719,"latitude":42.701848,"city_longitude":-84.4838654,"city_latitude":42.7369792,"date_occured":"1975-03-13","Audio":true,"Visual":true,"Time_of_Day":"Morning","Apparition_Type":"Unknown"},{"city":"East Lansing","country":"United States","location":"Michigan State University","state":"Michigan","state_abbrev":"MI","longitude":-84.4821719,"latitude":42.701848,"city_longitude":-84.4838654,"city_latitude":42.7369792,"date_occured":"2025-01-01","Audio":false,"Visual":true,"Time_of_Day":"Unknown","Apparition_Type":"Female"},{"city":"East Lansing","country":"United States","location":"Michigan State University","state":"Michigan","state_abbrev":"MI","longitude":-84.4821719,"latitude":42.701848,"city_longitude":-84.4838654,"city_latitude":42.7369792,"date_occured":"2025-01-01","Audio":true,"Visual":true,"Time_of_Day":"Unknown","Apparition_Type":"Unknown"},{"city":"East Lansing","country":"United States","location":"Michigan State University","state":"Michigan","state_abbrev":"MI","longitude":-84.4821719,"latitude":42.701848,"city_longitude":-84.4838654,"city_latitude":42.7369792,"date_occured":"2025-07-13","Audio":true,"Visual":false,"Time_of_Day":"Evening","Apparition_Type":"Unknown"},{"city":"East Lansing","country":"United States","location":"Michigan State University","state":"Michigan","state_abbrev":"MI","longitude":-84.4821719,"latitude":42.701848,"city_longitude":-84.4838654,"city_latitude":42.7369792,"date_occured":"2025-01-01","Audio":true,"Visual":true,"Time_of_Day":"Evening","Apparition_Type":"Unknown"},{"city":"East Leroy","country":"United States","location":"4 mile road","state":"Michigan","state_abbrev":"MI","longitude":-85.2178058,"latitude":42.2081814,"city_longitude":-85.2174862,"city_latitude":42.1661559,"date_occured":"1920-03-13","Audio":true,"Visual":true,"Time_of_Day":"Morning","Apparition_Type":"Ghost"},{"city":"Eastpointe","country":"United States","location":"East Detroit High School","state":"Michigan","state_abbrev":"MI","longitude":-82.961991,"latitude":42.463516,"city_longitude":-82.9554746,"city_latitude":42.4683698,"date_occured":"2025-01-01","Audio":false,"Visual":true,"Time_of_Day":"Unknown","Apparition_Type":"Unknown"},{"city":"Eastpointe","country":"United States","location":"First State Bank","state":"Michigan","state_abbrev":"MI","longitude":-82.9567569,"latitude":42.4641163,"city_longitude":-82.9554746,"city_latitude":42.4683698,"date_occured":"1946-03-13","Audio":false,"Visual":true,"Time_of_Day":"Evening","Apparition_Type":"Unknown"},{"city":"Eau Claire","country":"United States","location":"Dowagiac","state":"Michigan","state_abbrev":"MI","longitude":-86.2227997,"latitude":41.9944999,"city_longitude":-86.2997387,"city_latitude":41.9850452,"date_occured":"2025-01-01","Audio":false,"Visual":true,"Time_of_Day":"Evening","Apparition_Type":"Unknown"},{"city":"Evart","country":"United States","location":"Forest Hill Cemetery","state":"Michigan","state_abbrev":"MI","longitude":-85.2405487,"latitude":43.9013849,"city_longitude":-85.2580971,"city_latitude":43.9005752,"date_occured":"1800-03-13","Audio":false,"Visual":true,"Time_of_Day":"Evening","Apparition_Type":"Unknown"},{"city":"Fallassburg","country":"United States","location":"Fallassburg Park\/Covered Bridge","state":"Michigan","state_abbrev":"MI","longitude":-85.3267242,"latitude":42.9804248,"city_longitude":-85.3227948,"city_latitude":42.9822533,"date_occured":"2025-01-01","Audio":true,"Visual":true,"Time_of_Day":"Unknown","Apparition_Type":"Unknown"},{"city":"Farmington Hills","country":"United States","location":"Farmington Cemetery","state":"Michigan","state_abbrev":"MI","longitude":-83.3785425,"latitude":42.5182053,"city_longitude":-83.3677168,"city_latitude":42.4989936,"date_occured":"2007-03-13","Audio":false,"Visual":false,"Time_of_Day":"Unknown","Apparition_Type":"Unknown"},{"city":"Fenton","country":"United States","location":"Fenton Hotel","state":"Michigan","state_abbrev":"MI","longitude":-83.7046994,"latitude":42.7988392,"city_longitude":-83.7049498,"city_latitude":42.7978061,"date_occured":"2025-01-01","Audio":true,"Visual":true,"Time_of_Day":"Evening","Apparition_Type":"Ghost"},{"city":"Fennville","country":"United States","location":"54th street","state":"Michigan","state_abbrev":"MI","longitude":-86.0740947,"latitude":42.559848,"city_longitude":-86.1017009,"city_latitude":42.5939168,"date_occured":"2025-01-01","Audio":false,"Visual":false,"Time_of_Day":"Unknown","Apparition_Type":"Unknown"},{"city":"Fennville","country":"United States","location":"Reveille Rd","state":"Michigan","state_abbrev":"MI","longitude":-86.0738106,"latitude":42.597059,"city_longitude":-86.1017009,"city_latitude":42.5939168,"date_occured":"2025-01-01","Audio":true,"Visual":false,"Time_of_Day":"Unknown","Apparition_Type":"Unknown"},{"city":"Ferndale","country":"United States","location":"Ferndale Jewish cemetery","state":"Michigan","state_abbrev":"MI","longitude":-83.1307222,"latitude":42.452461,"city_longitude":-83.1346478,"city_latitude":42.4605917,"date_occured":"2025-01-01","Audio":true,"Visual":false,"Time_of_Day":"Morning, Evening","Apparition_Type":"Unknown"},{"city":"Flat Rock","country":"United States","location":"Ford Plant","state":"Michigan","state_abbrev":"MI","longitude":-83.2503189,"latitude":42.098206,"city_longitude":-83.2918744,"city_latitude":42.0964314,"date_occured":"1980-03-13","Audio":false,"Visual":true,"Time_of_Day":"Unknown","Apparition_Type":"Orb"},{"city":"Flint","country":"United States","location":"Capitol Theatre","state":"Michigan","state_abbrev":"MI","longitude":-83.6887886,"latitude":43.0153877,"city_longitude":-83.6874562,"city_latitude":43.0125274,"date_occured":"2025-01-01","Audio":true,"Visual":true,"Time_of_Day":"Unknown","Apparition_Type":"Unknown"},{"city":"Flint","country":"United States","location":"Cornwall building","state":"Michigan","state_abbrev":"MI","longitude":-83.693569,"latitude":43.012403,"city_longitude":-83.6874562,"city_latitude":43.0125274,"date_occured":"2025-01-01","Audio":false,"Visual":true,"Time_of_Day":"Unknown","Apparition_Type":"Unknown"},{"city":"Flint","country":"United States","location":"Diane's Pawn Center","state":"Michigan","state_abbrev":"MI","longitude":-83.6540035,"latitude":43.0157937,"city_longitude":-83.6874562,"city_latitude":43.0125274,"date_occured":"2025-01-01","Audio":false,"Visual":false,"Time_of_Day":"Unknown","Apparition_Type":"Unknown"},{"city":"Flint","country":"United States","location":"The Dryden Building","state":"Michigan","state_abbrev":"MI","longitude":-83.6894057,"latitude":43.0150225,"city_longitude":-83.6874562,"city_latitude":43.0125274,"date_occured":"2025-01-01","Audio":false,"Visual":false,"Time_of_Day":"Unknown","Apparition_Type":"Unknown"},{"city":"Flint","country":"United States","location":"Naturally You Wig &amp; Hair Salon","state":"Michigan","state_abbrev":"MI","longitude":-88.1180162,"latitude":43.1788641,"city_longitude":-83.6874562,"city_latitude":43.0125274,"date_occured":"2025-01-01","Audio":true,"Visual":true,"Time_of_Day":"Evening","Apparition_Type":"Unknown"},{"city":"Forester","country":"United States","location":"Forester Cemetery","state":"Michigan","state_abbrev":"MI","longitude":-82.5694563,"latitude":43.5035633,"city_longitude":-82.5693699,"city_latitude":43.4991899,"date_occured":"2025-01-01","Audio":false,"Visual":false,"Time_of_Day":"Unknown","Apparition_Type":"Unknown"},{"city":"Forester","country":"United States","location":"Forester Inn","state":"Michigan","state_abbrev":"MI","longitude":-82.5684048,"latitude":43.4998679,"city_longitude":-82.5693699,"city_latitude":43.4991899,"date_occured":"2025-01-01","Audio":false,"Visual":false,"Time_of_Day":"Unknown","Apparition_Type":"Unknown"},{"city":"Forester","country":"United States","location":"Lake Huron","state":"Michigan","state_abbrev":"MI","longitude":-82.5683672,"latitude":43.4984489,"city_longitude":-82.5693699,"city_latitude":43.4991899,"date_occured":"2025-03-15","Audio":true,"Visual":true,"Time_of_Day":"Unknown","Apparition_Type":"Ghost"},{"city":"Forestville","country":"United States","location":"Forestville Beach","state":"Michigan","state_abbrev":"MI","longitude":-82.7292065,"latitude":43.6723607,"city_longitude":-82.6093707,"city_latitude":43.6619638,"date_occured":"2025-01-01","Audio":true,"Visual":false,"Time_of_Day":"Evening","Apparition_Type":"Unknown"},{"city":"Frankenmuth","country":"United States","location":"School House Mall","state":"Michigan","state_abbrev":"MI","longitude":-83.7395964,"latitude":43.3238676,"city_longitude":-83.7380194,"city_latitude":43.331691,"date_occured":"1800-03-13","Audio":false,"Visual":true,"Time_of_Day":"Unknown","Apparition_Type":"Unknown"},{"city":"Fraser","country":"United States","location":"Eisenhower Elementary","state":"Michigan","state_abbrev":"MI","longitude":-82.940281,"latitude":42.526523,"city_longitude":-82.9493652,"city_latitude":42.539202,"date_occured":"2025-01-01","Audio":true,"Visual":true,"Time_of_Day":"Evening","Apparition_Type":"Unknown"},{"city":"Freeland","country":"United States","location":"Elementary school","state":"Michigan","state_abbrev":"MI","longitude":-84.115351,"latitude":43.5181975,"city_longitude":-84.1227598,"city_latitude":43.5250265,"date_occured":"2025-01-01","Audio":false,"Visual":true,"Time_of_Day":"Unknown","Apparition_Type":"Unknown"},{"city":"Freeland","country":"United States","location":"Ice Road Cemetery","state":"Michigan","state_abbrev":"MI","longitude":-84.109633,"latitude":43.504852,"city_longitude":-84.1227598,"city_latitude":43.5250265,"date_occured":"2025-01-01","Audio":false,"Visual":true,"Time_of_Day":"Unknown","Apparition_Type":"Unknown"},{"city":"Fremont","country":"United States","location":"Wal-mart","state":"Michigan","state_abbrev":"MI","longitude":-85.976471,"latitude":43.470088,"city_longitude":-85.9420013,"city_latitude":43.4675173,"date_occured":"2025-01-01","Audio":true,"Visual":true,"Time_of_Day":"Unknown","Apparition_Type":"Ghost"},{"city":"Garden City","country":"United States","location":"Garden City High School","state":"Michigan","state_abbrev":"MI","longitude":-83.329828,"latitude":42.3344518,"city_longitude":-83.3310422,"city_latitude":42.3255928,"date_occured":"1800-03-13","Audio":true,"Visual":false,"Time_of_Day":"Evening","Apparition_Type":"Unknown"},{"city":"Garden City","country":"United States","location":"Garden City High School","state":"Michigan","state_abbrev":"MI","longitude":-83.329828,"latitude":42.3344518,"city_longitude":-83.3310422,"city_latitude":42.3255928,"date_occured":"2025-01-01","Audio":false,"Visual":true,"Time_of_Day":"Unknown","Apparition_Type":"Unknown"},{"city":"Garden City","country":"United States","location":"Garden City High School","state":"Michigan","state_abbrev":"MI","longitude":-83.329828,"latitude":42.3344518,"city_longitude":-83.3310422,"city_latitude":42.3255928,"date_occured":"1984-03-13","Audio":false,"Visual":false,"Time_of_Day":"Unknown","Apparition_Type":"Unknown"},{"city":"Garden City","country":"United States","location":"Garden City Hospital","state":"Michigan","state_abbrev":"MI","longitude":-83.314599,"latitude":42.332212,"city_longitude":-83.3310422,"city_latitude":42.3255928,"date_occured":"2025-03-13","Audio":false,"Visual":true,"Time_of_Day":"Evening","Apparition_Type":"Unknown"},{"city":"Garden City","country":"United States","location":"Garden City Park","state":"Michigan","state_abbrev":"MI","longitude":-83.348889,"latitude":42.312688,"city_longitude":-83.3310422,"city_latitude":42.3255928,"date_occured":"2025-01-01","Audio":false,"Visual":true,"Time_of_Day":"Unknown","Apparition_Type":"Unknown"},{"city":"Garden City","country":"United States","location":"Lathers Elementary","state":"Michigan","state_abbrev":"MI","longitude":-83.3202104,"latitude":42.3177843,"city_longitude":-83.3310422,"city_latitude":42.3255928,"date_occured":"2025-01-01","Audio":true,"Visual":false,"Time_of_Day":"Unknown","Apparition_Type":"Unknown"},{"city":"Genesee","country":"United States","location":"Grand Blanc","state":"Michigan","state_abbrev":"MI","longitude":-83.6299518,"latitude":42.9275277,"city_longitude":-83.6135572,"city_latitude":43.0935147,"date_occured":"2025-01-01","Audio":true,"Visual":false,"Time_of_Day":"Unknown","Apparition_Type":"Unknown"},{"city":"Gladstone","country":"United States","location":"North Bluff Cemetery","state":"Michigan","state_abbrev":"MI","longitude":-87.0501112,"latitude":45.8416449,"city_longitude":-87.0218049,"city_latitude":45.8527435,"date_occured":"2025-01-01","Audio":false,"Visual":true,"Time_of_Day":"Unknown","Apparition_Type":"Unknown"},{"city":"Goodrich","country":"United States","location":"Cemetery by the Elementary School","state":"Michigan","state_abbrev":"MI","longitude":-83.506616,"latitude":42.9206458,"city_longitude":-83.5063365,"city_latitude":42.916972,"date_occured":"2025-01-01","Audio":true,"Visual":false,"Time_of_Day":"Evening","Apparition_Type":"Unknown"},{"city":"Grand Blanc","country":"United States","location":"Grand Blanc High School","state":"Michigan","state_abbrev":"MI","longitude":-83.6306543,"latitude":42.9205822,"city_longitude":-83.6299518,"city_latitude":42.9275277,"date_occured":"2025-01-01","Audio":true,"Visual":false,"Time_of_Day":"Unknown","Apparition_Type":"Unknown"},{"city":"Grand Blanc","country":"United States","location":"Old State Cemetery","state":"Michigan","state_abbrev":"MI","longitude":-83.6391193,"latitude":42.944472,"city_longitude":-83.6299518,"city_latitude":42.9275277,"date_occured":"2025-01-01","Audio":true,"Visual":true,"Time_of_Day":"Unknown","Apparition_Type":"Unknown"},{"city":"Grand Haven","country":"United States","location":"The Grand Theatre","state":"Michigan","state_abbrev":"MI","longitude":-86.215927,"latitude":43.029384,"city_longitude":-86.2283864,"city_latitude":43.0630734,"date_occured":"1995-03-13","Audio":false,"Visual":true,"Time_of_Day":"Unknown","Apparition_Type":"Unknown"},{"city":"Grand Haven","country":"United States","location":"Lake Forest Cemetery","state":"Michigan","state_abbrev":"MI","longitude":-86.2372972,"latitude":43.0515358,"city_longitude":-86.2283864,"city_latitude":43.0630734,"date_occured":"2025-01-01","Audio":false,"Visual":true,"Time_of_Day":"Unknown","Apparition_Type":"Unknown"},{"city":"Grand Ledge","country":"United States","location":"Sawdon High School","state":"Michigan","state_abbrev":"MI","longitude":-84.7483923,"latitude":42.749665,"city_longitude":-84.7463757,"city_latitude":42.7533685,"date_occured":"2025-01-01","Audio":true,"Visual":false,"Time_of_Day":"Unknown","Apparition_Type":"Unknown"},{"city":"Grand Rapids","country":"United States","location":"Ameritech Building","state":"Michigan","state_abbrev":"MI","longitude":-85.671432,"latitude":42.9662104,"city_longitude":-85.6680863,"city_latitude":42.9633599,"date_occured":"2025-01-01","Audio":false,"Visual":false,"Time_of_Day":"Unknown","Apparition_Type":"Unknown"},{"city":"Grand Rapids","country":"United States","location":"Amway Grand Plaza Hotel","state":"Michigan","state_abbrev":"MI","longitude":-85.6731045,"latitude":42.966833,"city_longitude":-85.6680863,"city_latitude":42.9633599,"date_occured":"2025-01-01","Audio":false,"Visual":false,"Time_of_Day":"Unknown","Apparition_Type":"Unknown"},{"city":"Grand Rapids","country":"United States","location":"Aquinas College","state":"Michigan","state_abbrev":"MI","longitude":-85.6285917,"latitude":42.9603278,"city_longitude":-85.6680863,"city_latitude":42.9633599,"date_occured":"2025-01-01","Audio":false,"Visual":true,"Time_of_Day":"Evening","Apparition_Type":"Ghost"},{"city":"Grand Rapids","country":"United States","location":"The Black Hills","state":"Michigan","state_abbrev":"MI","longitude":-85.6884286,"latitude":42.9470019,"city_longitude":-85.6680863,"city_latitude":42.9633599,"date_occured":"1996-03-13","Audio":false,"Visual":true,"Time_of_Day":"Unknown","Apparition_Type":"Ghost"},{"city":"Grand Rapids","country":"United States","location":"Cornerstone University","state":"Michigan","state_abbrev":"MI","longitude":-85.5948623,"latitude":42.9809156,"city_longitude":-85.6680863,"city_latitude":42.9633599,"date_occured":"2070-03-13","Audio":false,"Visual":false,"Time_of_Day":"Unknown","Apparition_Type":"Unknown"},{"city":"Grand Rapids","country":"United States","location":"Cornerstone University","state":"Michigan","state_abbrev":"MI","longitude":-85.5948623,"latitude":42.9809156,"city_longitude":-85.6680863,"city_latitude":42.9633599,"date_occured":"2070-03-13","Audio":false,"Visual":false,"Time_of_Day":"Unknown","Apparition_Type":"Unknown"},{"city":"Grand Rapids","country":"United States","location":"Grand Rapids Civic Theatre","state":"Michigan","state_abbrev":"MI","longitude":-85.6677979,"latitude":42.9642492,"city_longitude":-85.6680863,"city_latitude":42.9633599,"date_occured":"2025-01-01","Audio":false,"Visual":true,"Time_of_Day":"Unknown","Apparition_Type":"Unknown"},{"city":"Grand Rapids","country":"United States","location":"Grand Rapids Home for Veterans","state":"Michigan","state_abbrev":"MI","longitude":-85.6602716,"latitude":43.0165405,"city_longitude":-85.6680863,"city_latitude":42.9633599,"date_occured":"1886-03-13","Audio":false,"Visual":true,"Time_of_Day":"Morning","Apparition_Type":"Unknown"},{"city":"Grand Rapids","country":"United States","location":"St. Isidore School","state":"Michigan","state_abbrev":"MI","longitude":-85.6445633,"latitude":42.9741734,"city_longitude":-85.6680863,"city_latitude":42.9633599,"date_occured":"2025-01-01","Audio":true,"Visual":false,"Time_of_Day":"Unknown","Apparition_Type":"Unknown"},{"city":"Grand Rapids","country":"United States","location":"Ottawa Hills High School","state":"Michigan","state_abbrev":"MI","longitude":-85.6273537,"latitude":42.9257517,"city_longitude":-85.6680863,"city_latitude":42.9633599,"date_occured":"2025-01-01","Audio":true,"Visual":false,"Time_of_Day":"Morning","Apparition_Type":"Unknown"},{"city":"Grand Rapids","country":"United States","location":"St. Stephens School","state":"Michigan","state_abbrev":"MI","longitude":-85.6285066,"latitude":42.9490465,"city_longitude":-85.6680863,"city_latitude":42.9633599,"date_occured":"1970-03-13","Audio":true,"Visual":true,"Time_of_Day":"Unknown","Apparition_Type":"Unknown"},{"city":"Grand Rapids","country":"United States","location":"Studio 28 (theater)","state":"Michigan","state_abbrev":"MI","longitude":-85.5876561,"latitude":42.9150873,"city_longitude":-85.6680863,"city_latitude":42.9633599,"date_occured":"2025-01-01","Audio":false,"Visual":true,"Time_of_Day":"Unknown","Apparition_Type":"Ghost"},{"city":"Grand Rapids","country":"United States","location":"Thornapple Restaurant","state":"Michigan","state_abbrev":"MI","longitude":-85.5126927,"latitude":42.9123467,"city_longitude":-85.6680863,"city_latitude":42.9633599,"date_occured":"2025-01-01","Audio":true,"Visual":true,"Time_of_Day":"Evening","Apparition_Type":"Unknown"},{"city":"Grand Rapids","country":"United States","location":"West Catholic High School","state":"Michigan","state_abbrev":"MI","longitude":-85.7102787,"latitude":42.9965143,"city_longitude":-85.6680863,"city_latitude":42.9633599,"date_occured":"1980-03-13","Audio":false,"Visual":true,"Time_of_Day":"Unknown","Apparition_Type":"Unknown"},{"city":"Grand Traverse County","country":"United States","location":"Monroe Center S. Of Traverse City","state":"Michigan","state_abbrev":"MI","longitude":-85.6958083,"latitude":44.6088545,"city_longitude":-85.520024,"city_latitude":44.687984,"date_occured":"2025-01-01","Audio":false,"Visual":true,"Time_of_Day":"Unknown","Apparition_Type":"Orb"},{"city":"Grandville","country":"United States","location":"Grandville Cemetery","state":"Michigan","state_abbrev":"MI","longitude":-85.751642,"latitude":42.904303,"city_longitude":-85.7630885,"city_latitude":42.9097484,"date_occured":"1800-03-13","Audio":false,"Visual":false,"Time_of_Day":"Unknown","Apparition_Type":"Unknown"},{"city":"Grant","country":"United States","location":"Grant High School","state":"Michigan","state_abbrev":"MI","longitude":-85.801897,"latitude":43.3376505,"city_longitude":-85.8108819,"city_latitude":43.3361323,"date_occured":"2025-01-01","Audio":false,"Visual":true,"Time_of_Day":"Unknown","Apparition_Type":"Unknown"},{"city":"Grayling","country":"United States","location":"Hartwick Pines River Bottom","state":"Michigan","state_abbrev":"MI","longitude":-84.6677726,"latitude":44.7497134,"city_longitude":-84.7147512,"city_latitude":44.6614039,"date_occured":"2025-01-01","Audio":true,"Visual":false,"Time_of_Day":"Morning","Apparition_Type":"Unknown"},{"city":"Grayling","country":"United States","location":"Pere Cheney Cemetery","state":"Michigan","state_abbrev":"MI","longitude":-84.6351845,"latitude":44.5731364,"city_longitude":-84.7147512,"city_latitude":44.6614039,"date_occured":"1800-03-13","Audio":true,"Visual":true,"Time_of_Day":"Unknown","Apparition_Type":"Unknown"},{"city":"Greenville","country":"United States","location":"Fire Station #4","state":"Michigan","state_abbrev":"MI","longitude":-82.8223847,"latitude":34.6766585,"city_longitude":-85.2527987,"city_latitude":43.1775314,"date_occured":"2025-01-01","Audio":false,"Visual":false,"Time_of_Day":"Unknown","Apparition_Type":"Ghost"},{"city":"Greenville","country":"United States","location":"Metron nursing home","state":"Michigan","state_abbrev":"MI","longitude":-85.2387967,"latitude":43.1771189,"city_longitude":-85.2527987,"city_latitude":43.1775314,"date_occured":"2025-03-23","Audio":false,"Visual":true,"Time_of_Day":"Unknown","Apparition_Type":"Unknown"},{"city":"Grosse Isle","country":"United States","location":"Ford Yacht Club","state":"Michigan","state_abbrev":"MI","longitude":-83.1697982,"latitude":42.0902321,"city_longitude":-83.1445904,"city_latitude":42.1290753,"date_occured":"1812-03-13","Audio":false,"Visual":false,"Time_of_Day":"Unknown","Apparition_Type":"Ghost"},{"city":"Grosse Ile","country":"United States","location":"Wildlife Sanctuary","state":"Michigan","state_abbrev":"MI","longitude":-83.1484706,"latitude":42.1647606,"city_longitude":-83.1445904,"city_latitude":42.1290753,"date_occured":"2025-10-12","Audio":true,"Visual":true,"Time_of_Day":"Evening","Apparition_Type":"Unknown"},{"city":"Grosse Pointe Shores","country":"United States","location":"Lakeshore Drive","state":"Michigan","state_abbrev":"MI","longitude":-82.8737597,"latitude":42.4538245,"city_longitude":-82.8768586,"city_latitude":42.4367034,"date_occured":"2025-01-01","Audio":false,"Visual":true,"Time_of_Day":"Unknown","Apparition_Type":"Unknown"},{"city":"Grosse Pointe Woods","country":"United States","location":"Grosse Pointe North High School","state":"Michigan","state_abbrev":"MI","longitude":-82.8891958,"latitude":42.4367922,"city_longitude":-82.9068603,"city_latitude":42.4436478,"date_occured":"2025-01-01","Audio":true,"Visual":false,"Time_of_Day":"Morning","Apparition_Type":"Unknown"},{"city":"Gulliver","country":"United States","location":"Seul Choix Point","state":"Michigan","state_abbrev":"MI","longitude":-85.9121605,"latitude":45.9213487,"city_longitude":-86.012069,"city_latitude":45.9930329,"date_occured":"2005-03-13","Audio":false,"Visual":false,"Time_of_Day":"Morning, Evening","Apparition_Type":"Ghost"},{"city":"Hamilton","country":"United States","location":"The Junction","state":"Michigan","state_abbrev":"MI","longitude":-87.7825203,"latitude":42.7355726,"city_longitude":-85.9987285,"city_latitude":42.671257,"date_occured":"2025-01-01","Audio":false,"Visual":false,"Time_of_Day":"Unknown","Apparition_Type":"Ghost"},{"city":"Hancock","country":"United States","location":"Finlandia University","state":"Michigan","state_abbrev":"MI","longitude":-88.5891047,"latitude":47.1265521,"city_longitude":-88.5809563,"city_latitude":47.1268714,"date_occured":"0102-03-13","Audio":false,"Visual":true,"Time_of_Day":"Unknown","Apparition_Type":"Unknown"},{"city":"Harrison","country":"United States","location":"The Apartments behind the Putt-R-Golf","state":"Michigan","state_abbrev":"MI","longitude":-84.8080571,"latitude":44.0272665,"city_longitude":-84.7994675,"city_latitude":44.0191862,"date_occured":"2025-01-01","Audio":true,"Visual":false,"Time_of_Day":"Unknown","Apparition_Type":"Unknown"},{"city":"Hartford","country":"United States","location":"Maple Hill Cemetery","state":"Michigan","state_abbrev":"MI","longitude":-86.1681818,"latitude":42.1977006,"city_longitude":-86.1666876,"city_latitude":42.2067051,"date_occured":"2025-01-01","Audio":false,"Visual":true,"Time_of_Day":"Unknown","Apparition_Type":"Unknown"},{"city":"Hartland","country":"United States","location":"Hartland Golf Range","state":"Michigan","state_abbrev":"MI","longitude":-83.7085022,"latitude":42.6291544,"city_longitude":-83.7507315,"city_latitude":42.6315066,"date_occured":"2025-01-01","Audio":false,"Visual":false,"Time_of_Day":"Unknown","Apparition_Type":"Unknown"},{"city":"Hastings","country":"United States","location":"Hastings Middle School","state":"Michigan","state_abbrev":"MI","longitude":-85.2907258,"latitude":42.6435743,"city_longitude":-85.2908403,"city_latitude":42.6458682,"date_occured":"2025-01-01","Audio":false,"Visual":true,"Time_of_Day":"Unknown","Apparition_Type":"Unknown"},{"city":"Harrison","country":"United States","location":"Reinke House","state":"Michigan","state_abbrev":"MI","longitude":-84.7987629,"latitude":44.0176644,"city_longitude":-84.7994675,"city_latitude":44.0191862,"date_occured":"2025-03-06","Audio":true,"Visual":true,"Time_of_Day":"Evening","Apparition_Type":"Ghost"},{"city":"Harrisville","country":"United States","location":"Sturgeon Point light house","state":"Michigan","state_abbrev":"MI","longitude":-83.2726825,"latitude":44.7127172,"city_longitude":-83.2946891,"city_latitude":44.6564022,"date_occured":"2025-01-01","Audio":false,"Visual":true,"Time_of_Day":"Unknown","Apparition_Type":"Unknown"},{"city":"Hartland","country":"United States","location":"Hartland RD Cemetery","state":"Michigan","state_abbrev":"MI","longitude":-83.7548297,"latitude":42.6584109,"city_longitude":-83.7507315,"city_latitude":42.6315066,"date_occured":"2025-01-01","Audio":false,"Visual":true,"Time_of_Day":"Evening","Apparition_Type":"Orb"},{"city":"Hastings","country":"United States","location":"Charlton Park","state":"Michigan","state_abbrev":"MI","longitude":-85.2116371,"latitude":42.616978,"city_longitude":-85.2908403,"city_latitude":42.6458682,"date_occured":"2025-01-01","Audio":false,"Visual":true,"Time_of_Day":"Unknown","Apparition_Type":"Unknown"},{"city":"Highland","country":"United States","location":"Shoe Tree","state":"Michigan","state_abbrev":"MI","longitude":-83.9703462,"latitude":42.1703849,"city_longitude":-83.6175677,"city_latitude":42.6380014,"date_occured":"2007-03-13","Audio":true,"Visual":false,"Time_of_Day":"Evening","Apparition_Type":"Unknown"},{"city":"Holland","country":"United States","location":"Castle Park","state":"Michigan","state_abbrev":"MI","longitude":-86.1650024,"latitude":42.7314938,"city_longitude":-86.1089301,"city_latitude":42.7875235,"date_occured":"1890-03-13","Audio":false,"Visual":true,"Time_of_Day":"Evening","Apparition_Type":"Ghost"},{"city":"Holly","country":"United States","location":"Holly hotel","state":"Michigan","state_abbrev":"MI","longitude":-83.6266686,"latitude":42.7907892,"city_longitude":-83.6277255,"city_latitude":42.7919727,"date_occured":"2025-01-01","Audio":false,"Visual":false,"Time_of_Day":"Evening","Apparition_Type":"Ghost"},{"city":"Holt","country":"United States","location":"Holt High School","state":"Michigan","state_abbrev":"MI","longitude":-84.5739603,"latitude":42.6416724,"city_longitude":-84.5152545,"city_latitude":42.6405912,"date_occured":"2025-01-01","Audio":false,"Visual":false,"Time_of_Day":"Unknown","Apparition_Type":"Unknown"},{"city":"Holt","country":"United States","location":"Holt Jr. High","state":"Michigan","state_abbrev":"MI","longitude":-84.5221223,"latitude":42.6349398,"city_longitude":-84.5152545,"city_latitude":42.6405912,"date_occured":"1900-03-13","Audio":false,"Visual":false,"Time_of_Day":"Unknown","Apparition_Type":"Unknown"},{"city":"Holt","country":"United States","location":"Hope Middle School","state":"Michigan","state_abbrev":"MI","longitude":-84.5131703,"latitude":42.6414148,"city_longitude":-84.5152545,"city_latitude":42.6405912,"date_occured":"1980-03-13","Audio":true,"Visual":false,"Time_of_Day":"Evening","Apparition_Type":"Unknown"},{"city":"Houghton Lake","country":"United States","location":"Walgreen\u2019s","state":"Michigan","state_abbrev":"MI","longitude":-84.65072,"latitude":44.2988715,"city_longitude":-84.7647496,"city_latitude":44.314739,"date_occured":"2008-03-13","Audio":false,"Visual":true,"Time_of_Day":"Unknown","Apparition_Type":"Unknown"},{"city":"Howell","country":"United States","location":"courthouse yard","state":"Michigan","state_abbrev":"MI","longitude":-83.9573224,"latitude":42.6110431,"city_longitude":-83.9293952,"city_latitude":42.6072552,"date_occured":"2025-01-01","Audio":true,"Visual":true,"Time_of_Day":"Unknown","Apparition_Type":"Ghost"},{"city":"Inkster","country":"United States","location":"Union Chapel Cemetery","state":"Michigan","state_abbrev":"MI","longitude":-83.3058286,"latitude":42.2939689,"city_longitude":-83.3099303,"city_latitude":42.2942045,"date_occured":"1866-03-13","Audio":false,"Visual":false,"Time_of_Day":"Unknown","Apparition_Type":"Unknown"},{"city":"Interlochen","country":"United States","location":"Grunow Theatre (Interlochen Arts Academy)","state":"Michigan","state_abbrev":"MI","longitude":-85.769263,"latitude":44.631233,"city_longitude":-85.7676077,"city_latitude":44.6453738,"date_occured":"1920-03-13","Audio":true,"Visual":true,"Time_of_Day":"Evening","Apparition_Type":"Unknown"},{"city":"Ionia","country":"United States","location":"Highland Park Cemetery","state":"Michigan","state_abbrev":"MI","longitude":-85.0202602,"latitude":42.9871077,"city_longitude":-85.0711174,"city_latitude":42.9872547,"date_occured":"2025-03-13","Audio":false,"Visual":false,"Time_of_Day":"Evening","Apparition_Type":"Unknown"},{"city":"Iron River","country":"United States","location":"Iron Lake","state":"Michigan","state_abbrev":"MI","longitude":-88.6631876,"latitude":46.1308488,"city_longitude":-88.6423544,"city_latitude":46.0927322,"date_occured":"2025-03-15","Audio":true,"Visual":true,"Time_of_Day":"Unknown","Apparition_Type":"Unknown"},{"city":"Jackson","country":"United States","location":"Michigan Center High School- January 2007","state":"Michigan","state_abbrev":"MI","longitude":-84.3408958,"latitude":42.2586637,"city_longitude":-84.4013462,"city_latitude":42.245869,"date_occured":"2025-01-01","Audio":true,"Visual":true,"Time_of_Day":"Unknown","Apparition_Type":"Unknown"},{"city":"Jackson","country":"United States","location":"Michigan Theater","state":"Michigan","state_abbrev":"MI","longitude":-84.4061094,"latitude":42.2480174,"city_longitude":-84.4013462,"city_latitude":42.245869,"date_occured":"2025-01-01","Audio":false,"Visual":true,"Time_of_Day":"Unknown","Apparition_Type":"Unknown"},{"city":"Jackson","country":"United States","location":"Renolds road cemetery","state":"Michigan","state_abbrev":"MI","longitude":-84.411047,"latitude":42.2375,"city_longitude":-84.4013462,"city_latitude":42.245869,"date_occured":"2025-01-01","Audio":false,"Visual":true,"Time_of_Day":"Evening","Apparition_Type":"Unknown"},{"city":"Jackson","country":"United States","location":"Vander Cook Lake Castle","state":"Michigan","state_abbrev":"MI","longitude":-84.3918105,"latitude":42.2002519,"city_longitude":-84.4013462,"city_latitude":42.245869,"date_occured":"2025-01-01","Audio":false,"Visual":true,"Time_of_Day":"Unknown","Apparition_Type":"Unknown"},{"city":"Jackson","country":"United States","location":"YMCA Camp Storer","state":"Michigan","state_abbrev":"MI","longitude":-84.2891974,"latitude":42.1597064,"city_longitude":-84.4013462,"city_latitude":42.245869,"date_occured":"2007-03-13","Audio":false,"Visual":false,"Time_of_Day":"Unknown","Apparition_Type":"Unknown"},{"city":"Kalamazoo","country":"United States","location":"Bronson Hospital","state":"Michigan","state_abbrev":"MI","longitude":-85.5804185,"latitude":42.2855143,"city_longitude":-85.5872286,"city_latitude":42.2917069,"date_occured":"2007-03-13","Audio":false,"Visual":true,"Time_of_Day":"Unknown","Apparition_Type":"Unknown"},{"city":"Kalamazoo","country":"United States","location":"Borgess Hospital","state":"Michigan","state_abbrev":"MI","longitude":-85.561243,"latitude":42.307689,"city_longitude":-85.5872286,"city_latitude":42.2917069,"date_occured":"2025-01-01","Audio":false,"Visual":true,"Time_of_Day":"Unknown","Apparition_Type":"Ghost"},{"city":"Kalamazoo","country":"United States","location":"Gilmoure now Alpha Tau Omega fraternity house","state":"Michigan","state_abbrev":"MI","longitude":-85.6282605,"latitude":42.2774003,"city_longitude":-85.5872286,"city_latitude":42.2917069,"date_occured":"2025-03-30","Audio":false,"Visual":true,"Time_of_Day":"Evening","Apparition_Type":"Unknown"},{"city":"Kalamazoo","country":"United States","location":"T. B. Sanitorium","state":"Michigan","state_abbrev":"MI","longitude":-85.6043182,"latitude":42.2790387,"city_longitude":-85.5872286,"city_latitude":42.2917069,"date_occured":"2025-01-01","Audio":true,"Visual":true,"Time_of_Day":"Unknown","Apparition_Type":"Unknown"},{"city":"Keego Harbor","country":"United States","location":"Fran Leaf Park","state":"Michigan","state_abbrev":"MI","longitude":-83.3448876,"latitude":42.6081232,"city_longitude":-83.3438247,"city_latitude":42.6080884,"date_occured":"2025-01-01","Audio":true,"Visual":false,"Time_of_Day":"Unknown","Apparition_Type":"Ghost"},{"city":"Kelloggsville","country":"United States","location":"Kelloggsville High School","state":"Michigan","state_abbrev":"MI","longitude":-85.6651356,"latitude":42.8767383,"city_longitude":null,"city_latitude":null,"date_occured":"1960-03-13","Audio":false,"Visual":false,"Time_of_Day":"Unknown","Apparition_Type":"Unknown"},{"city":"Kent County","country":"United States","location":"Cannonsburg Road","state":"Michigan","state_abbrev":"MI","longitude":-85.5141019,"latitude":43.0581685,"city_longitude":-85.520024,"city_latitude":43.0097027,"date_occured":"1980-03-13","Audio":false,"Visual":true,"Time_of_Day":"Evening","Apparition_Type":"Unknown"},{"city":"Kent County","country":"United States","location":"Rockford","state":"Michigan","state_abbrev":"MI","longitude":-85.5600316,"latitude":43.1200272,"city_longitude":-85.520024,"city_latitude":43.0097027,"date_occured":"2025-01-01","Audio":false,"Visual":true,"Time_of_Day":"Unknown","Apparition_Type":"Ghost"},{"city":"Kenton","country":"United States","location":"Kitchie Cemetery","state":"Michigan","state_abbrev":"MI","longitude":-88.8173882,"latitude":46.4980839,"city_longitude":-88.8940283,"city_latitude":46.4854993,"date_occured":"2025-01-01","Audio":true,"Visual":false,"Time_of_Day":"Unknown","Apparition_Type":"Orb"},{"city":"Kewadin","country":"United States","location":"Oasis Red Bull Tavern","state":"Michigan","state_abbrev":"MI","longitude":-85.3662424,"latitude":44.9298878,"city_longitude":-85.3731257,"city_latitude":44.9286137,"date_occured":"1932-03-13","Audio":true,"Visual":true,"Time_of_Day":"Evening","Apparition_Type":"Unknown"},{"city":"Kingsford","country":"United States","location":"Pine Mountain Road","state":"Michigan","state_abbrev":"MI","longitude":-88.0917838,"latitude":45.8463043,"city_longitude":-88.0720706,"city_latitude":45.7949561,"date_occured":"2025-01-01","Audio":false,"Visual":true,"Time_of_Day":"Evening","Apparition_Type":"Unknown"},{"city":"Kingsford","country":"United States","location":"Pine Mountain Road","state":"Michigan","state_abbrev":"MI","longitude":-88.0917838,"latitude":45.8463043,"city_longitude":-88.0720706,"city_latitude":45.7949561,"date_occured":"2025-01-01","Audio":false,"Visual":false,"Time_of_Day":"Unknown","Apparition_Type":"Unknown"},{"city":"Lake Orion","country":"United States","location":"Scripps Road","state":"Michigan","state_abbrev":"MI","longitude":-83.2392028,"latitude":42.7522316,"city_longitude":-83.2396612,"city_latitude":42.7844752,"date_occured":"2008-03-13","Audio":false,"Visual":false,"Time_of_Day":"Unknown","Apparition_Type":"Unknown"},{"city":"Lambertville","country":"United States","location":"formerly listed in Temperance","state":"Michigan","state_abbrev":"MI","longitude":-83.626011,"latitude":41.758108,"city_longitude":-83.624201,"city_latitude":41.7529088,"date_occured":"1957-03-13","Audio":true,"Visual":true,"Time_of_Day":"Morning, Evening","Apparition_Type":"Unknown"},{"city":"Lapeer","country":"United States","location":"Castaway's restaurant","state":"Michigan","state_abbrev":"MI","longitude":-83.3799577,"latitude":43.0195709,"city_longitude":-83.3188341,"city_latitude":43.0514161,"date_occured":"2025-01-01","Audio":true,"Visual":true,"Time_of_Day":"Unknown","Apparition_Type":"Unknown"},{"city":"Lansing","country":"United States","location":"State Capitol Building","state":"Michigan","state_abbrev":"MI","longitude":-84.5553919,"latitude":42.7336193,"city_longitude":-84.5555347,"city_latitude":42.732535,"date_occured":"2025-01-01","Audio":false,"Visual":false,"Time_of_Day":"Unknown","Apparition_Type":"Unknown"},{"city":"Lincoln Park","country":"United States","location":"Council Point Park","state":"Michigan","state_abbrev":"MI","longitude":-83.1615501,"latitude":42.2350392,"city_longitude":-83.1785361,"city_latitude":42.2505943,"date_occured":"2025-01-01","Audio":false,"Visual":true,"Time_of_Day":"Unknown","Apparition_Type":"Unknown"},{"city":"Lincoln Park","country":"United States","location":"Old Streets","state":"Michigan","state_abbrev":"MI","longitude":-84.8690475,"latitude":43.9372364,"city_longitude":-83.1785361,"city_latitude":42.2505943,"date_occured":"2025-01-01","Audio":false,"Visual":true,"Time_of_Day":"Unknown","Apparition_Type":"Unknown"},{"city":"Livonia","country":"United States","location":"5 mile and Farmington road","state":"Michigan","state_abbrev":"MI","longitude":-83.373699,"latitude":42.3970209,"city_longitude":-83.3527097,"city_latitude":42.36837,"date_occured":"2025-01-01","Audio":false,"Visual":true,"Time_of_Day":"Evening","Apparition_Type":"Unknown"},{"city":"Livonia","country":"United States","location":"American House","state":"Michigan","state_abbrev":"MI","longitude":-83.37369,"latitude":42.36624,"city_longitude":-83.3527097,"city_latitude":42.36837,"date_occured":"2025-01-01","Audio":true,"Visual":false,"Time_of_Day":"Evening","Apparition_Type":"Unknown"},{"city":"Livonia","country":"United States","location":"Franklin High School","state":"Michigan","state_abbrev":"MI","longitude":-83.3453752,"latitude":42.3557663,"city_longitude":-83.3527097,"city_latitude":42.36837,"date_occured":"2025-01-01","Audio":true,"Visual":false,"Time_of_Day":"Unknown","Apparition_Type":"Unknown"},{"city":"Livonia","country":"United States","location":"Rotary Park Woods","state":"Michigan","state_abbrev":"MI","longitude":-83.3628206,"latitude":42.413474,"city_longitude":-83.3527097,"city_latitude":42.36837,"date_occured":"2025-01-01","Audio":true,"Visual":true,"Time_of_Day":"Evening","Apparition_Type":"Ghost"},{"city":"Luce County","country":"United States","location":"Newberry","state":"Michigan","state_abbrev":"MI","longitude":-85.5095586,"latitude":46.3549984,"city_longitude":-85.513329,"city_latitude":46.5827512,"date_occured":"2025-01-01","Audio":false,"Visual":false,"Time_of_Day":"Unknown","Apparition_Type":"Ghost"},{"city":"Mackinac Island","country":"United States","location":"Bailey House","state":"Michigan","state_abbrev":"MI","longitude":-84.6275658,"latitude":45.8683129,"city_longitude":-84.6189339,"city_latitude":45.8491796,"date_occured":"2025-01-01","Audio":false,"Visual":true,"Time_of_Day":"Unknown","Apparition_Type":"Unknown"},{"city":"Mackinac Island","country":"United States","location":"Bogan Lane","state":"Michigan","state_abbrev":"MI","longitude":-84.6123383,"latitude":45.8510096,"city_longitude":-84.6189339,"city_latitude":45.8491796,"date_occured":"2025-01-01","Audio":true,"Visual":true,"Time_of_Day":"Unknown","Apparition_Type":"Unknown"},{"city":"Mackinac Island","country":"United States","location":"Bois Balnc Island","state":"Michigan","state_abbrev":"MI","longitude":-84.4162484,"latitude":45.7487574,"city_longitude":-84.6189339,"city_latitude":45.8491796,"date_occured":"2025-01-01","Audio":false,"Visual":false,"Time_of_Day":"Unknown","Apparition_Type":"Unknown"},{"city":"Mackinac Island","country":"United States","location":"Fort Mackinac","state":"Michigan","state_abbrev":"MI","longitude":-84.6173978,"latitude":45.8520988,"city_longitude":-84.6189339,"city_latitude":45.8491796,"date_occured":"2025-01-01","Audio":true,"Visual":true,"Time_of_Day":"Morning","Apparition_Type":"Ghost"},{"city":"Mackinac Island","country":"United States","location":"Grand Hotel","state":"Michigan","state_abbrev":"MI","longitude":-84.626205,"latitude":45.851135,"city_longitude":-84.6189339,"city_latitude":45.8491796,"date_occured":"2025-01-01","Audio":false,"Visual":false,"Time_of_Day":"Unknown","Apparition_Type":"Unknown"},{"city":"Mackinac Island","country":"United States","location":"Mackinac Bridge","state":"Michigan","state_abbrev":"MI","longitude":-84.7277655,"latitude":45.817377,"city_longitude":-84.6189339,"city_latitude":45.8491796,"date_occured":"2008-03-13","Audio":true,"Visual":false,"Time_of_Day":"Unknown","Apparition_Type":"Unknown"},{"city":"Mackinac Island","country":"United States","location":"Marquette Park","state":"Michigan","state_abbrev":"MI","longitude":-84.6167072,"latitude":45.8509853,"city_longitude":-84.6189339,"city_latitude":45.8491796,"date_occured":"1000-03-13","Audio":false,"Visual":false,"Time_of_Day":"Unknown","Apparition_Type":"Unknown"},{"city":"Mackinac Island","country":"United States","location":"Mission House","state":"Michigan","state_abbrev":"MI","longitude":-84.605211,"latitude":45.851374,"city_longitude":-84.6189339,"city_latitude":45.8491796,"date_occured":"2025-01-01","Audio":false,"Visual":true,"Time_of_Day":"Evening","Apparition_Type":"Ghost"},{"city":"Mackinac Island","country":"United States","location":"Mission Point","state":"Michigan","state_abbrev":"MI","longitude":-84.605211,"latitude":45.851374,"city_longitude":-84.6189339,"city_latitude":45.8491796,"date_occured":"2025-01-01","Audio":false,"Visual":true,"Time_of_Day":"Morning","Apparition_Type":"Unknown"},{"city":"Mackinac Island","country":"United States","location":"Post Cemetery","state":"Michigan","state_abbrev":"MI","longitude":-84.620735,"latitude":45.8587269,"city_longitude":-84.6189339,"city_latitude":45.8491796,"date_occured":"2025-01-01","Audio":false,"Visual":false,"Time_of_Day":"Unknown","Apparition_Type":"Unknown"},{"city":"Mackinac Island","country":"United States","location":"The Rifle range trail","state":"Michigan","state_abbrev":"MI","longitude":-84.6127267,"latitude":45.8582146,"city_longitude":-84.6189339,"city_latitude":45.8491796,"date_occured":"0100-03-13","Audio":false,"Visual":true,"Time_of_Day":"Unknown","Apparition_Type":"Ghost"},{"city":"Mackinac Island","country":"United States","location":"St. Cloud Dormitory","state":"Michigan","state_abbrev":"MI","longitude":-84.6179923,"latitude":45.8492622,"city_longitude":-84.6189339,"city_latitude":45.8491796,"date_occured":"2025-01-01","Audio":false,"Visual":false,"Time_of_Day":"Unknown","Apparition_Type":"Unknown"},{"city":"Mackinac Island","country":"United States","location":"Stone Point Cottage","state":"Michigan","state_abbrev":"MI","longitude":-84.6042377,"latitude":45.8523689,"city_longitude":-84.6189339,"city_latitude":45.8491796,"date_occured":"2025-01-01","Audio":false,"Visual":false,"Time_of_Day":"Unknown","Apparition_Type":"Ghost"},{"city":"Mackinac Island","country":"United States","location":"Straights of Mackinac","state":"Michigan","state_abbrev":"MI","longitude":-84.6275658,"latitude":45.8683129,"city_longitude":-84.6189339,"city_latitude":45.8491796,"date_occured":"2025-01-01","Audio":false,"Visual":true,"Time_of_Day":"Unknown","Apparition_Type":"Unknown"},{"city":"Madison Heights","country":"United States","location":"Lamphere High School","state":"Michigan","state_abbrev":"MI","longitude":-83.112395,"latitude":42.521548,"city_longitude":-83.1052028,"city_latitude":42.4858692,"date_occured":"2060-03-13","Audio":true,"Visual":false,"Time_of_Day":"Morning","Apparition_Type":"Unknown"},{"city":"Madison Heights","country":"United States","location":"Park","state":"Michigan","state_abbrev":"MI","longitude":-83.1010535,"latitude":42.4880996,"city_longitude":-83.1052028,"city_latitude":42.4858692,"date_occured":"2025-01-01","Audio":false,"Visual":true,"Time_of_Day":"Unknown","Apparition_Type":"Unknown"},{"city":"Manistee","country":"United States","location":"Ramsdell Theatre","state":"Michigan","state_abbrev":"MI","longitude":-86.323636,"latitude":44.245691,"city_longitude":-86.324253,"city_latitude":44.2444473,"date_occured":"2025-01-01","Audio":false,"Visual":true,"Time_of_Day":"Unknown","Apparition_Type":"Unknown"},{"city":"Marine City","country":"United States","location":"Lighthouse","state":"Michigan","state_abbrev":"MI","longitude":-82.9277984,"latitude":42.3454506,"city_longitude":-82.492132,"city_latitude":42.7194778,"date_occured":"2025-03-03","Audio":false,"Visual":true,"Time_of_Day":"Unknown","Apparition_Type":"Unknown"},{"city":"Marine City","country":"United States","location":"Riviera Restaurant","state":"Michigan","state_abbrev":"MI","longitude":-82.4927116,"latitude":42.7146215,"city_longitude":-82.492132,"city_latitude":42.7194778,"date_occured":"2003-03-13","Audio":false,"Visual":false,"Time_of_Day":"Morning, Evening","Apparition_Type":"Unknown"},{"city":"Marcellus","country":"United States","location":"Anderson Cemetery","state":"Michigan","state_abbrev":"MI","longitude":-85.8967468,"latitude":42.0762436,"city_longitude":-85.8155576,"city_latitude":42.0258779,"date_occured":"2025-01-01","Audio":false,"Visual":true,"Time_of_Day":"Evening","Apparition_Type":"Unknown"},{"city":"Marquette","country":"United States","location":"Big Bay Point Lighthouse","state":"Michigan","state_abbrev":"MI","longitude":-87.679969,"latitude":46.841653,"city_longitude":-87.3955954,"city_latitude":46.5475825,"date_occured":"2025-01-01","Audio":false,"Visual":false,"Time_of_Day":"Unknown","Apparition_Type":"Unknown"},{"city":"Marquette","country":"United States","location":"Old City Orphanage","state":"Michigan","state_abbrev":"MI","longitude":-87.4041849,"latitude":46.5399756,"city_longitude":-87.3955954,"city_latitude":46.5475825,"date_occured":"2025-01-01","Audio":false,"Visual":true,"Time_of_Day":"Evening","Apparition_Type":"Unknown"},{"city":"Marquette","country":"United States","location":"Landmark Inn","state":"Michigan","state_abbrev":"MI","longitude":-87.3920529,"latitude":46.5447206,"city_longitude":-87.3955954,"city_latitude":46.5475825,"date_occured":"2025-01-01","Audio":false,"Visual":false,"Time_of_Day":"Unknown","Apparition_Type":"Unknown"},{"city":"Marquette","country":"United States","location":"Northern Michigan University","state":"Michigan","state_abbrev":"MI","longitude":-87.4044868,"latitude":46.5596032,"city_longitude":-87.3955954,"city_latitude":46.5475825,"date_occured":"2025-01-01","Audio":false,"Visual":true,"Time_of_Day":"Unknown","Apparition_Type":"Unknown"},{"city":"Marquette","country":"United States","location":"Northern Michigan University","state":"Michigan","state_abbrev":"MI","longitude":-87.4044868,"latitude":46.5596032,"city_longitude":-87.3955954,"city_latitude":46.5475825,"date_occured":"2025-01-01","Audio":false,"Visual":false,"Time_of_Day":"Unknown","Apparition_Type":"Ghost"},{"city":"Marquette","country":"United States","location":"Northern Michigan University","state":"Michigan","state_abbrev":"MI","longitude":-87.4044868,"latitude":46.5596032,"city_longitude":-87.3955954,"city_latitude":46.5475825,"date_occured":"2025-01-01","Audio":false,"Visual":false,"Time_of_Day":"Evening","Apparition_Type":"Ghost"},{"city":"Marquette","country":"United States","location":"Northern Michigan University","state":"Michigan","state_abbrev":"MI","longitude":-87.4044868,"latitude":46.5596032,"city_longitude":-87.3955954,"city_latitude":46.5475825,"date_occured":"2025-01-01","Audio":false,"Visual":true,"Time_of_Day":"Unknown","Apparition_Type":"Unknown"},{"city":"Marquette","country":"United States","location":"Northern Michigan University","state":"Michigan","state_abbrev":"MI","longitude":-87.4044868,"latitude":46.5596032,"city_longitude":-87.3955954,"city_latitude":46.5475825,"date_occured":"2025-01-01","Audio":false,"Visual":false,"Time_of_Day":"Evening","Apparition_Type":"Unknown"},{"city":"Marquette","country":"United States","location":"Old Children's Orphanage","state":"Michigan","state_abbrev":"MI","longitude":-87.4041849,"latitude":46.5399756,"city_longitude":-87.3955954,"city_latitude":46.5475825,"date_occured":"2025-01-01","Audio":true,"Visual":true,"Time_of_Day":"Unknown","Apparition_Type":"Unknown"},{"city":"Marquette","country":"United States","location":"Shamrock Pub","state":"Michigan","state_abbrev":"MI","longitude":-87.3920529,"latitude":46.5447206,"city_longitude":-87.3955954,"city_latitude":46.5475825,"date_occured":"1800-03-13","Audio":false,"Visual":false,"Time_of_Day":"Evening","Apparition_Type":"Unknown"},{"city":"Memphis","country":"United States","location":"Memphis Cemetery","state":"Michigan","state_abbrev":"MI","longitude":-82.7687596,"latitude":42.8795638,"city_longitude":-82.7688134,"city_latitude":42.8964179,"date_occured":"2025-01-01","Audio":true,"Visual":true,"Time_of_Day":"Unknown","Apparition_Type":"Unknown"},{"city":"Metamora","country":"United States","location":"blood road","state":"Michigan","state_abbrev":"MI","longitude":-83.2824897,"latitude":42.915599,"city_longitude":-83.2891092,"city_latitude":42.9414173,"date_occured":"2025-01-01","Audio":true,"Visual":true,"Time_of_Day":"Evening","Apparition_Type":"Unknown"},{"city":"Metamora","country":"United States","location":"White Horse Inn","state":"Michigan","state_abbrev":"MI","longitude":-83.288821,"latitude":42.941807,"city_longitude":-83.2891092,"city_latitude":42.9414173,"date_occured":"2025-01-01","Audio":true,"Visual":false,"Time_of_Day":"Unknown","Apparition_Type":"Unknown"},{"city":"Michigan Center","country":"United States","location":"Michigan Center Jr. High School","state":"Michigan","state_abbrev":"MI","longitude":-84.3386076,"latitude":42.2237071,"city_longitude":-84.3271772,"city_latitude":42.2330917,"date_occured":"2025-01-01","Audio":true,"Visual":true,"Time_of_Day":"Unknown","Apparition_Type":"Unknown"},{"city":"Middleville","country":"United States","location":"Shaw Lake Rd.","state":"Michigan","state_abbrev":"MI","longitude":-85.4815854,"latitude":42.6752607,"city_longitude":-85.4619599,"city_latitude":42.7130889,"date_occured":"2025-03-13","Audio":false,"Visual":false,"Time_of_Day":"Unknown","Apparition_Type":"Unknown"},{"city":"midland","country":"United States","location":"Bennegan's parking lot","state":"Michigan","state_abbrev":"MI","longitude":-84.2478002,"latitude":43.6578807,"city_longitude":-84.2472116,"city_latitude":43.6155825,"date_occured":"2025-03-05","Audio":true,"Visual":true,"Time_of_Day":"Evening","Apparition_Type":"Orb"},{"city":"Midland","country":"United States","location":"Midland Cinemas","state":"Michigan","state_abbrev":"MI","longitude":-84.2332286,"latitude":43.6568712,"city_longitude":-84.2472116,"city_latitude":43.6155825,"date_occured":"2025-01-01","Audio":false,"Visual":true,"Time_of_Day":"Unknown","Apparition_Type":"Unknown"},{"city":"Midland","country":"United States","location":"Midland Cemetery","state":"Michigan","state_abbrev":"MI","longitude":-84.2568487,"latitude":43.6258158,"city_longitude":-84.2472116,"city_latitude":43.6155825,"date_occured":"2025-01-01","Audio":true,"Visual":true,"Time_of_Day":"Unknown","Apparition_Type":"Orb"},{"city":"Milan","country":"United States","location":"Milan High School","state":"Michigan","state_abbrev":"MI","longitude":-83.7028475,"latitude":42.0785187,"city_longitude":-83.6824384,"city_latitude":42.0853204,"date_occured":"2025-01-01","Audio":false,"Visual":false,"Time_of_Day":"Unknown","Apparition_Type":"Unknown"},{"city":"Milan","country":"United States","location":"Milan Oakvill Rd.","state":"Michigan","state_abbrev":"MI","longitude":-83.6268555,"latitude":42.0841868,"city_longitude":-83.6824384,"city_latitude":42.0853204,"date_occured":"1910-03-13","Audio":true,"Visual":true,"Time_of_Day":"Unknown","Apparition_Type":"Unknown"},{"city":"Millington","country":"United States","location":"Antique mall","state":"Michigan","state_abbrev":"MI","longitude":-83.5296099,"latitude":43.2800192,"city_longitude":-83.5296774,"city_latitude":43.2814132,"date_occured":"2025-01-01","Audio":false,"Visual":false,"Time_of_Day":"Unknown","Apparition_Type":"Unknown"},{"city":"Millington","country":"United States","location":"Fairway Discount Store","state":"Michigan","state_abbrev":"MI","longitude":-83.5296403,"latitude":43.2805193,"city_longitude":-83.5296774,"city_latitude":43.2814132,"date_occured":"2025-01-01","Audio":false,"Visual":true,"Time_of_Day":"Unknown","Apparition_Type":"Unknown"},{"city":"Millington","country":"United States","location":"Millington Hills","state":"Michigan","state_abbrev":"MI","longitude":-83.4915575,"latitude":43.2185681,"city_longitude":-83.5296774,"city_latitude":43.2814132,"date_occured":"2025-01-01","Audio":false,"Visual":false,"Time_of_Day":"Unknown","Apparition_Type":"Unknown"},{"city":"Montague","country":"United States","location":"Mouth Cemetery","state":"Michigan","state_abbrev":"MI","longitude":-86.4232388,"latitude":43.3848517,"city_longitude":-86.357013,"city_latitude":43.4166772,"date_occured":"2025-01-01","Audio":false,"Visual":true,"Time_of_Day":"Unknown","Apparition_Type":"Orb"},{"city":"Mount Clemens","country":"United States","location":"CHE COSA coffee house","state":"Michigan","state_abbrev":"MI","longitude":-82.8656605,"latitude":42.5851851,"city_longitude":-82.8779754,"city_latitude":42.5972563,"date_occured":"2025-01-01","Audio":false,"Visual":false,"Time_of_Day":"Unknown","Apparition_Type":"Orb"},{"city":"Mount Clemens","country":"United States","location":"The Crocker House Museum.","state":"Michigan","state_abbrev":"MI","longitude":-82.8820073,"latitude":42.5987361,"city_longitude":-82.8779754,"city_latitude":42.5972563,"date_occured":"2025-01-01","Audio":false,"Visual":false,"Time_of_Day":"Unknown","Apparition_Type":"Ghost, Male"},{"city":"Mount Morris","country":"United States","location":"Auto City Junk Yard","state":"Michigan","state_abbrev":"MI","longitude":-83.6948994,"latitude":43.1110513,"city_longitude":-83.6949583,"city_latitude":43.1186374,"date_occured":"1980-03-13","Audio":true,"Visual":false,"Time_of_Day":"Evening","Apparition_Type":"Ghost"},{"city":"Mount Pleasant","country":"United States","location":"Central Michigan University","state":"Michigan","state_abbrev":"MI","longitude":-84.7756364,"latitude":43.5819086,"city_longitude":-84.7675139,"city_latitude":43.5978075,"date_occured":"2025-01-01","Audio":true,"Visual":true,"Time_of_Day":"Evening","Apparition_Type":"Unknown"},{"city":"Mount Pleasant","country":"United States","location":"Central Michigan University","state":"Michigan","state_abbrev":"MI","longitude":-84.7756364,"latitude":43.5819086,"city_longitude":-84.7675139,"city_latitude":43.5978075,"date_occured":"2025-01-01","Audio":true,"Visual":true,"Time_of_Day":"Evening","Apparition_Type":"Ghost"},{"city":"Mount Pleasant","country":"United States","location":"Central Michigan University","state":"Michigan","state_abbrev":"MI","longitude":-84.7756364,"latitude":43.5819086,"city_longitude":-84.7675139,"city_latitude":43.5978075,"date_occured":"2025-01-01","Audio":false,"Visual":false,"Time_of_Day":"Evening","Apparition_Type":"Unknown"},{"city":"Mount Pleasant","country":"United States","location":"Central Michigan University","state":"Michigan","state_abbrev":"MI","longitude":-84.7756364,"latitude":43.5819086,"city_longitude":-84.7675139,"city_latitude":43.5978075,"date_occured":"2025-01-01","Audio":false,"Visual":false,"Time_of_Day":"Evening","Apparition_Type":"Unknown"},{"city":"Mount Pleasant","country":"United States","location":"Central Michigan University","state":"Michigan","state_abbrev":"MI","longitude":-84.7756364,"latitude":43.5819086,"city_longitude":-84.7675139,"city_latitude":43.5978075,"date_occured":"2003-03-13","Audio":false,"Visual":true,"Time_of_Day":"Unknown","Apparition_Type":"Ghost"},{"city":"Mount Pleasant","country":"United States","location":"Mill Pond","state":"Michigan","state_abbrev":"MI","longitude":-84.7897446,"latitude":43.599784,"city_longitude":-84.7675139,"city_latitude":43.5978075,"date_occured":"2025-01-01","Audio":false,"Visual":true,"Time_of_Day":"Unknown","Apparition_Type":"Unknown"},{"city":"Mount Pleasant","country":"United States","location":"Mt. Pleasant Center","state":"Michigan","state_abbrev":"MI","longitude":-84.748628,"latitude":43.612163,"city_longitude":-84.7675139,"city_latitude":43.5978075,"date_occured":"2025-01-01","Audio":true,"Visual":true,"Time_of_Day":"Evening","Apparition_Type":"Ghost"},{"city":"Muskegon","country":"United States","location":"Amazon Apartments","state":"Michigan","state_abbrev":"MI","longitude":-86.2567244,"latitude":43.2336436,"city_longitude":-86.2483921,"city_latitude":43.2341813,"date_occured":"2025-01-01","Audio":false,"Visual":true,"Time_of_Day":"Unknown","Apparition_Type":"Unknown"},{"city":"Muskegon","country":"United States","location":"Northshore Hospital","state":"Michigan","state_abbrev":"MI","longitude":-86.25207,"latitude":43.26768,"city_longitude":-86.2483921,"city_latitude":43.2341813,"date_occured":"2004-03-13","Audio":false,"Visual":true,"Time_of_Day":"Unknown","Apparition_Type":"Unknown"},{"city":"Muskegon","country":"United States","location":"Hackley Library","state":"Michigan","state_abbrev":"MI","longitude":-86.251505,"latitude":43.233893,"city_longitude":-86.2483921,"city_latitude":43.2341813,"date_occured":"2025-01-01","Audio":true,"Visual":false,"Time_of_Day":"Unknown","Apparition_Type":"Unknown"},{"city":"Muskegon","country":"United States","location":"St. Michaels Catholic Church","state":"Michigan","state_abbrev":"MI","longitude":-86.2503016,"latitude":43.2218223,"city_longitude":-86.2483921,"city_latitude":43.2341813,"date_occured":"2025-03-16","Audio":true,"Visual":false,"Time_of_Day":"Evening","Apparition_Type":"Unknown"},{"city":"Nashville","country":"United States","location":"Putnam District Library","state":"Michigan","state_abbrev":"MI","longitude":-85.0937057,"latitude":42.605779,"city_longitude":-85.0930536,"city_latitude":42.6028137,"date_occured":"2025-01-01","Audio":true,"Visual":false,"Time_of_Day":"Unknown","Apparition_Type":"Unknown"},{"city":"New Baltimore","country":"United States","location":"Hathaway House","state":"Michigan","state_abbrev":"MI","longitude":-82.734149,"latitude":42.683873,"city_longitude":-82.7368616,"city_latitude":42.6811436,"date_occured":"2005-03-13","Audio":true,"Visual":true,"Time_of_Day":"Evening","Apparition_Type":"Ghost"},{"city":"Newberry","country":"United States","location":"Newberry cemetery","state":"Michigan","state_abbrev":"MI","longitude":-85.524662,"latitude":46.3501262,"city_longitude":-85.5095586,"city_latitude":46.3549984,"date_occured":"2025-03-06","Audio":false,"Visual":false,"Time_of_Day":"Unknown","Apparition_Type":"Unknown"},{"city":"New Lathrup","country":"United States","location":"Juddville cemetery","state":"Michigan","state_abbrev":"MI","longitude":-83.9680102,"latitude":43.0552178,"city_longitude":-83.969967,"city_latitude":43.1166949,"date_occured":"2025-01-01","Audio":true,"Visual":true,"Time_of_Day":"Evening","Apparition_Type":"Unknown"},{"city":"Niles","country":"United States","location":"Marris Chapel","state":"Michigan","state_abbrev":"MI","longitude":-86.3022178,"latitude":41.849098,"city_longitude":-86.2541768,"city_latitude":41.8297694,"date_occured":"2025-01-01","Audio":true,"Visual":true,"Time_of_Day":"Evening","Apparition_Type":"Unknown"},{"city":"Niles","country":"United States","location":"North Niles Villa Apartments","state":"Michigan","state_abbrev":"MI","longitude":-86.2485161,"latitude":41.8454187,"city_longitude":-86.2541768,"city_latitude":41.8297694,"date_occured":"2025-01-01","Audio":true,"Visual":false,"Time_of_Day":"Unknown","Apparition_Type":"Unknown"},{"city":"Niles","country":"United States","location":"Silverbrook Cemetery","state":"Michigan","state_abbrev":"MI","longitude":-86.2426538,"latitude":41.8243461,"city_longitude":-86.2541768,"city_latitude":41.8297694,"date_occured":"2025-01-01","Audio":true,"Visual":false,"Time_of_Day":"Evening","Apparition_Type":"Unknown"},{"city":"North Street","country":"United States","location":"Dorsey House","state":"Michigan","state_abbrev":"MI","longitude":-82.5767839,"latitude":43.0527281,"city_longitude":-82.5300263,"city_latitude":43.0600638,"date_occured":"1995-03-13","Audio":false,"Visual":true,"Time_of_Day":"Unknown","Apparition_Type":"Ghost"},